{
"type": "FeatureCollection",
"name": "Schools",
"crs": { "type": "name", "properties": { "name": "urn:ogc:def:crs:EPSG::3857" } },
"features": [
{ "type": "Feature", "properties": { "ATS": "01M015", "Building_C": "M015", "Location_C": "M015", "Name": "P.S. 015 Roberto Clemente", "Geographic": 1, "Latitude": 40.722075, "Longitude": -73.978747 }, "geometry": { "type": "Point", "coordinates": [ -8235276.445599999278784, 4971433.816200003027916 ] } },
{ "type": "Feature", "properties": { "ATS": "01M020", "Building_C": "M020", "Location_C": "M020", "Name": "P.S. 020 Anna Silver", "Geographic": 1, "Latitude": 40.721305, "Longitude": -73.986312 }, "geometry": { "type": "Point", "coordinates": [ -8236118.577500000596046, 4971320.717600002884865 ] } },
{ "type": "Feature", "properties": { "ATS": "01M034", "Building_C": "M034", "Location_C": "M034", "Name": "P.S. 034 Franklin D. Roosevelt", "Geographic": 1, "Latitude": 40.726008, "Longitude": -73.975058 }, "geometry": { "type": "Point", "coordinates": [ -8234865.78800000064075, 4972011.52080000191927 ] } },
{ "type": "Feature", "properties": { "ATS": "01M063", "Building_C": "M063", "Location_C": "M063", "Name": "The STAR Academy - P.S.63", "Geographic": 1, "Latitude": 40.72444, "Longitude": -73.986214 }, "geometry": { "type": "Point", "coordinates": [ -8236107.668199999257922, 4971781.198600001633167 ] } },
{ "type": "Feature", "properties": { "ATS": "01M064", "Building_C": "M064", "Location_C": "M064", "Name": "P.S. 064 Robert Simon", "Geographic": 1, "Latitude": 40.72313, "Longitude": -73.981597 }, "geometry": { "type": "Point", "coordinates": [ -8235593.7061, 4971588.778099998831749 ] } },
{ "type": "Feature", "properties": { "ATS": "01M110", "Building_C": "M110", "Location_C": "M110", "Name": "P.S. 110 Florence Nightingale", "Geographic": 1, "Latitude": 40.7162, "Longitude": -73.9798 }, "geometry": { "type": "Point", "coordinates": [ -8235393.66499999910593, 4970570.921599999070168 ] } },
{ "type": "Feature", "properties": { "ATS": "01M134", "Building_C": "M134", "Location_C": "M134", "Name": "P.S. 134 Henrietta Szold", "Geographic": 1, "Latitude": 40.714248, "Longitude": -73.983854 }, "geometry": { "type": "Point", "coordinates": [ -8235844.954199999570847, 4970284.237199999392033 ] } },
{ "type": "Feature", "properties": { "ATS": "01M140", "Building_C": "M140", "Location_C": "M140", "Name": "P.S. 140 Nathan Straus", "Geographic": 1, "Latitude": 40.719148, "Longitude": -73.983769 }, "geometry": { "type": "Point", "coordinates": [ -8235835.492000000551343, 4971003.901600003242493 ] } },
{ "type": "Feature", "properties": { "ATS": "01M142", "Building_C": "M142", "Location_C": "M142", "Name": "P.S. 142 Amalia Castro", "Geographic": 1, "Latitude": 40.718121, "Longitude": -73.984116 }, "geometry": { "type": "Point", "coordinates": [ -8235874.119899999350309, 4970853.06139999628067 ] } },
{ "type": "Feature", "properties": { "ATS": "01M184", "Building_C": "M137", "Location_C": "M184", "Name": "P.S. 184m Shuang Wen", "Geographic": 1, "Latitude": 40.711125, "Longitude": -73.985438 }, "geometry": { "type": "Point", "coordinates": [ -8236021.284299999475479, 4969825.588899999856949 ] } },
{ "type": "Feature", "properties": { "ATS": "01M188", "Building_C": "M188", "Location_C": "M188", "Name": "P.S. 188 The Island School", "Geographic": 1, "Latitude": 40.719888, "Longitude": -73.97738 }, "geometry": { "type": "Point", "coordinates": [ -8235124.271800000220537, 4971112.590199999511242 ] } },
{ "type": "Feature", "properties": { "ATS": "01M292", "Building_C": "M056", "Location_C": "M292", "Name": "Orchard Collegiate Academy", "Geographic": 1, "Latitude": 40.713362, "Longitude": -73.986051 }, "geometry": { "type": "Point", "coordinates": [ -8236089.52309999987483, 4970154.115800000727177 ] } },
{ "type": "Feature", "properties": { "ATS": "01M315", "Building_C": "M019", "Location_C": "M315", "Name": "The East Village Community School", "Geographic": 1, "Latitude": 40.730009, "Longitude": -73.984496 }, "geometry": { "type": "Point", "coordinates": [ -8235916.421299999579787, 4972599.248599998652935 ] } },
{ "type": "Feature", "properties": { "ATS": "01M332", "Building_C": "M056", "Location_C": "M332", "Name": "University Neighborhood Middle School", "Geographic": 1, "Latitude": 40.713362, "Longitude": -73.986051 }, "geometry": { "type": "Point", "coordinates": [ -8236089.52309999987483, 4970154.115800000727177 ] } },
{ "type": "Feature", "properties": { "ATS": "01M361", "Building_C": "M061", "Location_C": "M361", "Name": "The Children's Workshop School", "Geographic": 1, "Latitude": 40.727537, "Longitude": -73.978254 }, "geometry": { "type": "Point", "coordinates": [ -8235221.565099999308586, 4972236.119400002062321 ] } },
{ "type": "Feature", "properties": { "ATS": "01M363", "Building_C": "M063", "Location_C": "M363", "Name": "Neighborhood School", "Geographic": 1, "Latitude": 40.72444, "Longitude": -73.986214 }, "geometry": { "type": "Point", "coordinates": [ -8236107.668199999257922, 4971781.198600001633167 ] } },
{ "type": "Feature", "properties": { "ATS": "01M364", "Building_C": "M064", "Location_C": "M364", "Name": "Earth School", "Geographic": 1, "Latitude": 40.72313, "Longitude": -73.981597 }, "geometry": { "type": "Point", "coordinates": [ -8235593.7061, 4971588.778099998831749 ] } },
{ "type": "Feature", "properties": { "ATS": "01M378", "Building_C": "M025", "Location_C": "M378", "Name": "School for Global Leaders", "Geographic": 1, "Latitude": 40.72004, "Longitude": -73.986038 }, "geometry": { "type": "Point", "coordinates": [ -8236088.075999999418855, 4971134.915600001811981 ] } },
{ "type": "Feature", "properties": { "ATS": "01M448", "Building_C": "M446", "Location_C": "M448", "Name": "University Neighborhood High School", "Geographic": 1, "Latitude": 40.712269, "Longitude": -73.984128 }, "geometry": { "type": "Point", "coordinates": [ -8235875.455700000748038, 4969993.595899999141693 ] } },
{ "type": "Feature", "properties": { "ATS": "01M450", "Building_C": "M060", "Location_C": "M450", "Name": "East Side Community School", "Geographic": 1, "Latitude": 40.729152, "Longitude": -73.982472 }, "geometry": { "type": "Point", "coordinates": [ -8235691.1107, 4972473.35639999806881 ] } },
{ "type": "Feature", "properties": { "ATS": "01M458", "Building_C": "M510", "Location_C": "M458", "Name": "Forsyth Satellite Academy", "Geographic": 1, "Latitude": 40.722415, "Longitude": -73.990468 }, "geometry": { "type": "Point", "coordinates": [ -8236581.221300000324845, 4971483.75620000064373 ] } },
{ "type": "Feature", "properties": { "ATS": "01M515", "Building_C": "M025", "Location_C": "M515", "Name": "Lower East Side Preparatory High School", "Geographic": 1, "Latitude": 40.72004, "Longitude": -73.986038 }, "geometry": { "type": "Point", "coordinates": [ -8236088.075999999418855, 4971134.915600001811981 ] } },
{ "type": "Feature", "properties": { "ATS": "01M539", "Building_C": "M022", "Location_C": "M539", "Name": "New Explorations into Science, Technology and Math", "Geographic": 1, "Latitude": 40.719416, "Longitude": -73.979581 }, "geometry": { "type": "Point", "coordinates": [ -8235369.286000000312924, 4971043.264300003647804 ] } },
{ "type": "Feature", "properties": { "ATS": "01M650", "Building_C": "M510", "Location_C": "M650", "Name": "Cascades High School", "Geographic": 1, "Latitude": 40.722415, "Longitude": -73.990468 }, "geometry": { "type": "Point", "coordinates": [ -8236581.221300000324845, 4971483.75620000064373 ] } },
{ "type": "Feature", "properties": { "ATS": "01M696", "Building_C": "M097", "Location_C": "M696", "Name": "Bard High School Early College", "Geographic": 1, "Latitude": 40.718276, "Longitude": -73.976093 }, "geometry": { "type": "Point", "coordinates": [ -8234981.003599999472499, 4970875.826800003647804 ] } },
{ "type": "Feature", "properties": { "ATS": "01M839", "Building_C": "M064", "Location_C": "M839", "Name": "Tompkins Square Middle School", "Geographic": 1, "Latitude": 40.72313, "Longitude": -73.981597 }, "geometry": { "type": "Point", "coordinates": [ -8235593.7061, 4971588.778099998831749 ] } },
{ "type": "Feature", "properties": { "ATS": "02M001", "Building_C": "M001", "Location_C": "M001", "Name": "P.S. 001 Alfred E. Smith", "Geographic": 2, "Latitude": 40.71255, "Longitude": -73.997478 }, "geometry": { "type": "Point", "coordinates": [ -8237361.570900000631809, 4970034.863799996674061 ] } },
{ "type": "Feature", "properties": { "ATS": "02M002", "Building_C": "M002", "Location_C": "M002", "Name": "P.S. 002 Meyer London", "Geographic": 2, "Latitude": 40.712907, "Longitude": -73.991523 }, "geometry": { "type": "Point", "coordinates": [ -8236698.6634, 4970087.293399997055531 ] } },
{ "type": "Feature", "properties": { "ATS": "02M003", "Building_C": "M003", "Location_C": "M003", "Name": "P.S. 003 Charrette School", "Geographic": 2, "Latitude": 40.732603, "Longitude": -74.005949 }, "geometry": { "type": "Point", "coordinates": [ -8238304.558399999514222, 4972980.313799999654293 ] } },
{ "type": "Feature", "properties": { "ATS": "02M006", "Building_C": "M006", "Location_C": "M006", "Name": "P.S. 006 Lillie D. Blake", "Geographic": 2, "Latitude": 40.777737, "Longitude": -73.960427 }, "geometry": { "type": "Point", "coordinates": [ -8233237.072499999776483, 4979612.992200002074242 ] } },
{ "type": "Feature", "properties": { "ATS": "02M011", "Building_C": "M011", "Location_C": "M011", "Name": "P.S. 011: The Sarah J. Garnet Elementary School", "Geographic": 2, "Latitude": 40.744186, "Longitude": -74.000743 }, "geometry": { "type": "Point", "coordinates": [ -8237725.029100000858307, 4974682.067100003361702 ] } },
{ "type": "Feature", "properties": { "ATS": "02M033", "Building_C": "M033", "Location_C": "M033", "Name": "P.S. 033 Chelsea Prep", "Geographic": 2, "Latitude": 40.749014, "Longitude": -74.000238 }, "geometry": { "type": "Point", "coordinates": [ -8237668.812699999660254, 4975391.475500002503395 ] } },
{ "type": "Feature", "properties": { "ATS": "02M040", "Building_C": "M040", "Location_C": "M040", "Name": "P.S. 040 Augustus Saint-Gaudens", "Geographic": 2, "Latitude": 40.735328, "Longitude": -73.981536 }, "geometry": { "type": "Point", "coordinates": [ -8235586.9156, 4973380.639200001955032 ] } },
{ "type": "Feature", "properties": { "ATS": "02M041", "Building_C": "M041", "Location_C": "M041", "Name": "P.S. 041 Greenwich Village", "Geographic": 2, "Latitude": 40.73545, "Longitude": -73.999094 }, "geometry": { "type": "Point", "coordinates": [ -8237541.463199999183416, 4973398.562399998307228 ] } },
{ "type": "Feature", "properties": { "ATS": "02M042", "Building_C": "M042", "Location_C": "M042", "Name": "P.S. 042 Benjamin Altman", "Geographic": 2, "Latitude": 40.716126, "Longitude": -73.990826 }, "geometry": { "type": "Point", "coordinates": [ -8236621.073699999600649, 4970560.053300000727177 ] } },
{ "type": "Feature", "properties": { "ATS": "02M047", "Building_C": "M047", "Location_C": "M047", "Name": "47 The American Sign Language and English Secondar", "Geographic": 2, "Latitude": 40.738374, "Longitude": -73.981329 }, "geometry": { "type": "Point", "coordinates": [ -8235563.872500000521541, 4973828.141599997878075 ] } },
{ "type": "Feature", "properties": { "ATS": "02M051", "Building_C": "M338", "Location_C": "M051", "Name": "P.S. 051 Elias Howe", "Geographic": 2, "Latitude": 40.761487, "Longitude": -73.995825 }, "geometry": { "type": "Point", "coordinates": [ -8237177.559800000861287, 4977224.450499996542931 ] } },
{ "type": "Feature", "properties": { "ATS": "02M059", "Building_C": "M488", "Location_C": "M059", "Name": "P.S. 059 Beekman Hill International", "Geographic": 2, "Latitude": 40.759248, "Longitude": -73.967204 }, "geometry": { "type": "Point", "coordinates": [ -8233991.4847, 4976895.391999997198582 ] } },
{ "type": "Feature", "properties": { "ATS": "02M077", "Building_C": "M198", "Location_C": "M077", "Name": "P.S. 77 Lower Lab School", "Geographic": 2, "Latitude": 40.785018, "Longitude": -73.95042 }, "geometry": { "type": "Point", "coordinates": [ -8232123.098300000652671, 4980683.395400002598763 ] } },
{ "type": "Feature", "properties": { "ATS": "02M089", "Building_C": "M089", "Location_C": "M089", "Name": "P.S. 89", "Geographic": 2, "Latitude": 40.71701, "Longitude": -74.013967 }, "geometry": { "type": "Point", "coordinates": [ -8239197.118000000715256, 4970689.886399999260902 ] } },
{ "type": "Feature", "properties": { "ATS": "02M104", "Building_C": "M104", "Location_C": "M104", "Name": "J.H.S. 104 Simon Baruch", "Geographic": 2, "Latitude": 40.735879, "Longitude": -73.981034 }, "geometry": { "type": "Point", "coordinates": [ -8235531.03319999948144, 4973461.587700001895428 ] } },
{ "type": "Feature", "properties": { "ATS": "02M111", "Building_C": "M111", "Location_C": "M111", "Name": "P.S. 111 Adolph S. Ochs", "Geographic": 2, "Latitude": 40.76588, "Longitude": -73.989776 }, "geometry": { "type": "Point", "coordinates": [ -8236504.188200000673532, 4977870.107600003480911 ] } },
{ "type": "Feature", "properties": { "ATS": "02M114", "Building_C": "M114", "Location_C": "M114", "Name": "East Side Middle School", "Geographic": 2, "Latitude": 40.780452, "Longitude": -73.947379 }, "geometry": { "type": "Point", "coordinates": [ -8231784.575799999758601, 4980012.119300000369549 ] } },
{ "type": "Feature", "properties": { "ATS": "02M116", "Building_C": "M116", "Location_C": "M116", "Name": "P.S. 116 Mary Lindley Murray", "Geographic": 2, "Latitude": 40.744511, "Longitude": -73.977906 }, "geometry": { "type": "Point", "coordinates": [ -8235182.825899999588728, 4974729.819700002670288 ] } },
{ "type": "Feature", "properties": { "ATS": "02M124", "Building_C": "M124", "Location_C": "M124", "Name": "P.S. 124 Yung Wing", "Geographic": 2, "Latitude": 40.715097, "Longitude": -73.996017 }, "geometry": { "type": "Point", "coordinates": [ -8237198.933199999853969, 4970408.926299996674061 ] } },
{ "type": "Feature", "properties": { "ATS": "02M126", "Building_C": "M126", "Location_C": "M126", "Name": "P.S. 126 Jacob August Riis", "Geographic": 2, "Latitude": 40.710651, "Longitude": -73.99742 }, "geometry": { "type": "Point", "coordinates": [ -8237355.114399999380112, 4969755.978500001132488 ] } },
{ "type": "Feature", "properties": { "ATS": "02M130", "Building_C": "M130", "Location_C": "M130", "Name": "P.S. 130 Hernando De Soto", "Geographic": 2, "Latitude": 40.71866, "Longitude": -73.998326 }, "geometry": { "type": "Point", "coordinates": [ -8237455.969900000840425, 4970932.226499997079372 ] } },
{ "type": "Feature", "properties": { "ATS": "02M131", "Building_C": "M131", "Location_C": "M131", "Name": "M.S. 131", "Geographic": 2, "Latitude": 40.716231, "Longitude": -73.993607 }, "geometry": { "type": "Point", "coordinates": [ -8236930.653200000524521, 4970575.474600002169609 ] } },
{ "type": "Feature", "properties": { "ATS": "02M135", "Building_C": "M520", "Location_C": "M135", "Name": "The Urban Assembly Early College High School of Em", "Geographic": 2, "Latitude": 40.711441, "Longitude": -74.000851 }, "geometry": { "type": "Point", "coordinates": [ -8237737.051599999889731, 4969871.996100001037121 ] } },
{ "type": "Feature", "properties": { "ATS": "02M139", "Building_C": "M625", "Location_C": "M139", "Name": "Stephen T. Mather Building Arts & Craftsmanship Hi", "Geographic": 2, "Latitude": 40.763655, "Longitude": -73.990318 }, "geometry": { "type": "Point", "coordinates": [ -8236564.523399999365211, 4977543.08500000089407 ] } },
{ "type": "Feature", "properties": { "ATS": "02M150", "Building_C": "M464", "Location_C": "M150", "Name": "P.S. 150", "Geographic": 2, "Latitude": 40.707355, "Longitude": -74.01358 }, "geometry": { "type": "Point", "coordinates": [ -8239154.037399999797344, 4969271.94990000128746 ] } },
{ "type": "Feature", "properties": { "ATS": "02M151", "Building_C": "M066", "Location_C": "M151", "Name": "Yorkville Community School", "Geographic": 2, "Latitude": 40.777948, "Longitude": -73.947287 }, "geometry": { "type": "Point", "coordinates": [ -8231774.3344, 4979644.010300002992153 ] } },
{ "type": "Feature", "properties": { "ATS": "02M158", "Building_C": "M158", "Location_C": "M158", "Name": "P.S. 158 Bayard Taylor", "Geographic": 2, "Latitude": 40.770215, "Longitude": -73.950745 }, "geometry": { "type": "Point", "coordinates": [ -8232159.277200000360608, 4978507.281999997794628 ] } },
{ "type": "Feature", "properties": { "ATS": "02M167", "Building_C": "M167", "Location_C": "M167", "Name": "J.H.S. 167 Robert F. Wagner", "Geographic": 2, "Latitude": 40.771541, "Longitude": -73.957827 }, "geometry": { "type": "Point", "coordinates": [ -8232947.641799999400973, 4978702.190700002014637 ] } },
{ "type": "Feature", "properties": { "ATS": "02M177", "Building_C": "M158", "Location_C": "M177", "Name": "Yorkville East Middle School", "Geographic": 2, "Latitude": 40.770215, "Longitude": -73.950745 }, "geometry": { "type": "Point", "coordinates": [ -8232159.277200000360608, 4978507.281999997794628 ] } },
{ "type": "Feature", "properties": { "ATS": "02M183", "Building_C": "M183", "Location_C": "M183", "Name": "P.S. 183 Robert L. Stevenson", "Geographic": 2, "Latitude": 40.763804, "Longitude": -73.957731 }, "geometry": { "type": "Point", "coordinates": [ -8232936.9551, 4977564.984099999070168 ] } },
{ "type": "Feature", "properties": { "ATS": "02M198", "Building_C": "M198", "Location_C": "M198", "Name": "P.S. 198 Isador E. Ida Straus", "Geographic": 2, "Latitude": 40.785018, "Longitude": -73.95042 }, "geometry": { "type": "Point", "coordinates": [ -8232123.098300000652671, 4980683.395400002598763 ] } },
{ "type": "Feature", "properties": { "ATS": "02M212", "Building_C": "M017", "Location_C": "M212", "Name": "P.S. 212 Midtown West", "Geographic": 2, "Latitude": 40.761327, "Longitude": -73.988665 }, "geometry": { "type": "Point", "coordinates": [ -8236380.512299999594688, 4977200.935500003397465 ] } },
{ "type": "Feature", "properties": { "ATS": "02M217", "Building_C": "M271", "Location_C": "M217", "Name": "P.S./I.S. 217 Roosevelt Island", "Geographic": 2, "Latitude": 40.753598, "Longitude": -73.956435 }, "geometry": { "type": "Point", "coordinates": [ -8232792.685100000351667, 4976065.079199999570847 ] } },
{ "type": "Feature", "properties": { "ATS": "02M225", "Building_C": "M480", "Location_C": "M225", "Name": "Ella Baker School", "Geographic": 2, "Latitude": 40.765638, "Longitude": -73.959777 }, "geometry": { "type": "Point", "coordinates": [ -8233164.714800000190735, 4977834.538800001144409 ] } },
{ "type": "Feature", "properties": { "ATS": "02M234", "Building_C": "M234", "Location_C": "M234", "Name": "P.S. 234 Independence School", "Geographic": 2, "Latitude": 40.71953, "Longitude": -74.01088 }, "geometry": { "type": "Point", "coordinates": [ -8238853.4748, 4971060.008299998939037 ] } },
{ "type": "Feature", "properties": { "ATS": "02M255", "Building_C": "M040", "Location_C": "M255", "Name": "M.S. 255 Salk School of Science", "Geographic": 2, "Latitude": 40.735328, "Longitude": -73.981536 }, "geometry": { "type": "Point", "coordinates": [ -8235586.9156, 4973380.639200001955032 ] } },
{ "type": "Feature", "properties": { "ATS": "02M260", "Building_C": "M868", "Location_C": "M260", "Name": "The Clinton School", "Geographic": 2, "Latitude": 40.736526, "Longitude": -73.992727 }, "geometry": { "type": "Point", "coordinates": [ -8236832.691999999806285, 4973556.640600003302097 ] } },
{ "type": "Feature", "properties": { "ATS": "02M267", "Building_C": "M267", "Location_C": "M267", "Name": "East Side Elementary School, PS 267", "Geographic": 2, "Latitude": 40.763883, "Longitude": -73.963861 }, "geometry": { "type": "Point", "coordinates": [ -8233619.343599999323487, 4977576.595100000500679 ] } },
{ "type": "Feature", "properties": { "ATS": "02M276", "Building_C": "M276", "Location_C": "M276", "Name": "Battery Park City School", "Geographic": 2, "Latitude": 40.706384, "Longitude": -74.017456 }, "geometry": { "type": "Point", "coordinates": [ -8239585.511700000613928, 4969129.359899997711182 ] } },
{ "type": "Feature", "properties": { "ATS": "02M280", "Building_C": "M520", "Location_C": "M280", "Name": "Manhattan Early College School for Advertising", "Geographic": 2, "Latitude": 40.711441, "Longitude": -74.000851 }, "geometry": { "type": "Point", "coordinates": [ -8237737.051599999889731, 4969871.996100001037121 ] } },
{ "type": "Feature", "properties": { "ATS": "02M281", "Building_C": "M281", "Location_C": "M281", "Name": "The River School", "Geographic": 2, "Latitude": 40.744288, "Longitude": -73.972592 }, "geometry": { "type": "Point", "coordinates": [ -8234591.2741, 4974697.053999997675419 ] } },
{ "type": "Feature", "properties": { "ATS": "02M282", "Building_C": "M520", "Location_C": "M282", "Name": "Urban Assembly Maker Academy", "Geographic": 2, "Latitude": 40.711441, "Longitude": -74.000851 }, "geometry": { "type": "Point", "coordinates": [ -8237737.051599999889731, 4969871.996100001037121 ] } },
{ "type": "Feature", "properties": { "ATS": "02M288", "Building_C": "M535", "Location_C": "M288", "Name": "Food and Finance High School", "Geographic": 2, "Latitude": 40.765474, "Longitude": -73.9927 }, "geometry": { "type": "Point", "coordinates": [ -8236829.6864, 4977810.434299997985363 ] } },
{ "type": "Feature", "properties": { "ATS": "02M289", "Building_C": "M089", "Location_C": "M289", "Name": "I.S. 289", "Geographic": 2, "Latitude": 40.71701, "Longitude": -74.013967 }, "geometry": { "type": "Point", "coordinates": [ -8239197.118000000715256, 4970689.886399999260902 ] } },
{ "type": "Feature", "properties": { "ATS": "02M290", "Building_C": "M190", "Location_C": "M290", "Name": "P.S. 290 Manhattan New School", "Geographic": 2, "Latitude": 40.775181, "Longitude": -73.952777 }, "geometry": { "type": "Point", "coordinates": [ -8232385.478399999439716, 4979237.254199996590614 ] } },
{ "type": "Feature", "properties": { "ATS": "02M294", "Building_C": "M445", "Location_C": "M294", "Name": "Essex Street Academy", "Geographic": 2, "Latitude": 40.717329, "Longitude": -73.989329 }, "geometry": { "type": "Point", "coordinates": [ -8236454.428400000557303, 4970736.738399997353554 ] } },
{ "type": "Feature", "properties": { "ATS": "02M296", "Building_C": "M535", "Location_C": "M296", "Name": "High School of Hospitality Management", "Geographic": 2, "Latitude": 40.765474, "Longitude": -73.9927 }, "geometry": { "type": "Point", "coordinates": [ -8236829.6864, 4977810.434299997985363 ] } },
{ "type": "Feature", "properties": { "ATS": "02M297", "Building_C": "M323", "Location_C": "M297", "Name": "M.S. 297", "Geographic": 2, "Latitude": 40.731006, "Longitude": -74.007192 }, "geometry": { "type": "Point", "coordinates": [ -8238442.92850000038743, 4972745.708700001239777 ] } },
{ "type": "Feature", "properties": { "ATS": "02M298", "Building_C": "M131", "Location_C": "M298", "Name": "Pace High School", "Geographic": 2, "Latitude": 40.716231, "Longitude": -73.993607 }, "geometry": { "type": "Point", "coordinates": [ -8236930.653200000524521, 4970575.474600002169609 ] } },
{ "type": "Feature", "properties": { "ATS": "02M300", "Building_C": "M535", "Location_C": "M300", "Name": "Urban Assembly School of Design and Construction,", "Geographic": 2, "Latitude": 40.765474, "Longitude": -73.9927 }, "geometry": { "type": "Point", "coordinates": [ -8236829.6864, 4977810.434299997985363 ] } },
{ "type": "Feature", "properties": { "ATS": "02M303", "Building_C": "M535", "Location_C": "M303", "Name": "Facing History School, The", "Geographic": 2, "Latitude": 40.765474, "Longitude": -73.9927 }, "geometry": { "type": "Point", "coordinates": [ -8236829.6864, 4977810.434299997985363 ] } },
{ "type": "Feature", "properties": { "ATS": "02M305", "Building_C": "M445", "Location_C": "M305", "Name": "Urban Assembly Academy of Government and Law, The", "Geographic": 2, "Latitude": 40.717329, "Longitude": -73.989329 }, "geometry": { "type": "Point", "coordinates": [ -8236454.428400000557303, 4970736.738399997353554 ] } },
{ "type": "Feature", "properties": { "ATS": "02M308", "Building_C": "M445", "Location_C": "M308", "Name": "Lower Manhattan Arts Academy", "Geographic": 2, "Latitude": 40.717329, "Longitude": -73.989329 }, "geometry": { "type": "Point", "coordinates": [ -8236454.428400000557303, 4970736.738399997353554 ] } },
{ "type": "Feature", "properties": { "ATS": "02M312", "Building_C": "M070", "Location_C": "M312", "Name": "New York City Lab Middle School for Collaborative", "Geographic": 2, "Latitude": 40.742512, "Longitude": -74.002222 }, "geometry": { "type": "Point", "coordinates": [ -8237889.6706000007689, 4974436.107699997723103 ] } },
{ "type": "Feature", "properties": { "ATS": "02M313", "Building_C": "M440", "Location_C": "M313", "Name": "James Baldwin School, The: A School for Expedition", "Geographic": 2, "Latitude": 40.743407, "Longitude": -74.00254 }, "geometry": { "type": "Point", "coordinates": [ -8237925.0702, 4974567.608499996364117 ] } },
{ "type": "Feature", "properties": { "ATS": "02M316", "Building_C": "M282", "Location_C": "M316", "Name": "Urban Assembly School of Business for Young Women,", "Geographic": 2, "Latitude": 40.705688, "Longitude": -74.013303 }, "geometry": { "type": "Point", "coordinates": [ -8239123.201899999752641, 4969027.154600001871586 ] } },
{ "type": "Feature", "properties": { "ATS": "02M340", "Building_C": "M340", "Location_C": "M340", "Name": "Sixth Avenue Elementary School", "Geographic": 2, "Latitude": 40.739145, "Longitude": -73.995534 }, "geometry": { "type": "Point", "coordinates": [ -8237145.165899999439716, 4973941.41610000282526 ] } },
{ "type": "Feature", "properties": { "ATS": "02M343", "Building_C": "M343", "Location_C": "M343", "Name": "The Peck Slip School", "Geographic": 2, "Latitude": 40.708774, "Longitude": -74.002407 }, "geometry": { "type": "Point", "coordinates": [ -8237910.264699999243021, 4969480.331900000572205 ] } },
{ "type": "Feature", "properties": { "ATS": "02M347", "Building_C": "M047", "Location_C": "M347", "Name": "The 47 American Sign Language & English Lower Scho", "Geographic": 2, "Latitude": 40.738374, "Longitude": -73.981329 }, "geometry": { "type": "Point", "coordinates": [ -8235563.872500000521541, 4973828.141599997878075 ] } },
{ "type": "Feature", "properties": { "ATS": "02M374", "Building_C": "M460", "Location_C": "M374", "Name": "Gramercy Arts High School", "Geographic": 2, "Latitude": 40.735361, "Longitude": -73.987064 }, "geometry": { "type": "Point", "coordinates": [ -8236202.289799999445677, 4973385.487300001084805 ] } },
{ "type": "Feature", "properties": { "ATS": "02M376", "Building_C": "M615", "Location_C": "M376", "Name": "NYC iSchool", "Geographic": 2, "Latitude": 40.72463, "Longitude": -74.005058 }, "geometry": { "type": "Point", "coordinates": [ -8238205.372700000181794, 4971809.107299998402596 ] } },
{ "type": "Feature", "properties": { "ATS": "02M391", "Building_C": "M391", "Location_C": "M391", "Name": "District 2 Pre-K Center", "Geographic": 2, "Latitude": 40.704892, "Longitude": -74.015929 }, "geometry": { "type": "Point", "coordinates": [ -8239415.526900000870228, 4968910.265900000929832 ] } },
{ "type": "Feature", "properties": { "ATS": "02M392", "Building_C": "M440", "Location_C": "M392", "Name": "Manhattan Business Academy", "Geographic": 2, "Latitude": 40.743407, "Longitude": -74.00254 }, "geometry": { "type": "Point", "coordinates": [ -8237925.0702, 4974567.608499996364117 ] } },
{ "type": "Feature", "properties": { "ATS": "02M393", "Building_C": "M625", "Location_C": "M393", "Name": "Business Of Sports School", "Geographic": 2, "Latitude": 40.763655, "Longitude": -73.990318 }, "geometry": { "type": "Point", "coordinates": [ -8236564.523399999365211, 4977543.08500000089407 ] } },
{ "type": "Feature", "properties": { "ATS": "02M394", "Building_C": "M131", "Location_C": "M394", "Name": "Emma Lazarus High School", "Geographic": 2, "Latitude": 40.716231, "Longitude": -73.993607 }, "geometry": { "type": "Point", "coordinates": [ -8236930.653200000524521, 4970575.474600002169609 ] } },
{ "type": "Feature", "properties": { "ATS": "02M395", "Building_C": "M894", "Location_C": "M395", "Name": "A School Without Walls", "Geographic": 2, "Latitude": 40.708971, "Longitude": -74.012465 }, "geometry": { "type": "Point", "coordinates": [ -8239029.916200000792742, 4969509.261900000274181 ] } },
{ "type": "Feature", "properties": { "ATS": "02M397", "Building_C": "M971", "Location_C": "M397", "Name": "Spruce Street School", "Geographic": 2, "Latitude": 40.711321, "Longitude": -74.005473 }, "geometry": { "type": "Point", "coordinates": [ -8238251.570299999788404, 4969854.373099997639656 ] } },
{ "type": "Feature", "properties": { "ATS": "02M399", "Building_C": "M460", "Location_C": "M399", "Name": "The High School For Language And Diplomacy", "Geographic": 2, "Latitude": 40.735361, "Longitude": -73.987064 }, "geometry": { "type": "Point", "coordinates": [ -8236202.289799999445677, 4973385.487300001084805 ] } },
{ "type": "Feature", "properties": { "ATS": "02M400", "Building_C": "M834", "Location_C": "M400", "Name": "High School for Environmental Studies", "Geographic": 2, "Latitude": 40.767848, "Longitude": -73.98861 }, "geometry": { "type": "Point", "coordinates": [ -8236374.389699999243021, 4978159.366400003433228 ] } },
{ "type": "Feature", "properties": { "ATS": "02M407", "Building_C": "M475", "Location_C": "M407", "Name": "Institute for Collaborative Education", "Geographic": 2, "Latitude": 40.732665, "Longitude": -73.98259 }, "geometry": { "type": "Point", "coordinates": [ -8235704.246400000527501, 4972989.421899996697903 ] } },
{ "type": "Feature", "properties": { "ATS": "02M408", "Building_C": "M017", "Location_C": "M408", "Name": "Professional Performing Arts High School", "Geographic": 2, "Latitude": 40.761327, "Longitude": -73.988665 }, "geometry": { "type": "Point", "coordinates": [ -8236380.512299999594688, 4977200.935500003397465 ] } },
{ "type": "Feature", "properties": { "ATS": "02M411", "Building_C": "M874", "Location_C": "M411", "Name": "Baruch College Campus High School", "Geographic": 2, "Latitude": 40.741888, "Longitude": -73.985723 }, "geometry": { "type": "Point", "coordinates": [ -8236053.010299999266863, 4974344.425499998033047 ] } },
{ "type": "Feature", "properties": { "ATS": "02M412", "Building_C": "M070", "Location_C": "M412", "Name": "N.Y.C. Lab School for Collaborative Studies", "Geographic": 2, "Latitude": 40.742512, "Longitude": -74.002222 }, "geometry": { "type": "Point", "coordinates": [ -8237889.6706000007689, 4974436.107699997723103 ] } },
{ "type": "Feature", "properties": { "ATS": "02M413", "Building_C": "M660", "Location_C": "M413", "Name": "School of the Future High School", "Geographic": 2, "Latitude": 40.739121, "Longitude": -73.985323 }, "geometry": { "type": "Point", "coordinates": [ -8236008.4825, 4973937.890000000596046 ] } },
{ "type": "Feature", "properties": { "ATS": "02M414", "Building_C": "M070", "Location_C": "M414", "Name": "N.Y.C. Museum School", "Geographic": 2, "Latitude": 40.742512, "Longitude": -74.002222 }, "geometry": { "type": "Point", "coordinates": [ -8237889.6706000007689, 4974436.107699997723103 ] } },
{ "type": "Feature", "properties": { "ATS": "02M416", "Building_C": "M855", "Location_C": "M416", "Name": "Eleanor Roosevelt High School", "Geographic": 2, "Latitude": 40.770288, "Longitude": -73.953276 }, "geometry": { "type": "Point", "coordinates": [ -8232441.026799999177456, 4978518.012199997901917 ] } },
{ "type": "Feature", "properties": { "ATS": "02M418", "Building_C": "M824", "Location_C": "M418", "Name": "Millennium High School", "Geographic": 2, "Latitude": 40.704697, "Longitude": -74.011202 }, "geometry": { "type": "Point", "coordinates": [ -8238889.319599999114871, 4968881.631300002336502 ] } },
{ "type": "Feature", "properties": { "ATS": "02M419", "Building_C": "M440", "Location_C": "M419", "Name": "Landmark High School", "Geographic": 2, "Latitude": 40.743407, "Longitude": -74.00254 }, "geometry": { "type": "Point", "coordinates": [ -8237925.0702, 4974567.608499996364117 ] } },
{ "type": "Feature", "properties": { "ATS": "02M420", "Building_C": "M475", "Location_C": "M420", "Name": "High School for Health Professions and Human Servi", "Geographic": 2, "Latitude": 40.732665, "Longitude": -73.98259 }, "geometry": { "type": "Point", "coordinates": [ -8235704.246400000527501, 4972989.421899996697903 ] } },
{ "type": "Feature", "properties": { "ATS": "02M422", "Building_C": "M440", "Location_C": "M422", "Name": "Quest to Learn", "Geographic": 2, "Latitude": 40.743407, "Longitude": -74.00254 }, "geometry": { "type": "Point", "coordinates": [ -8237925.0702, 4974567.608499996364117 ] } },
{ "type": "Feature", "properties": { "ATS": "02M425", "Building_C": "M894", "Location_C": "M425", "Name": "Leadership and Public Service High School", "Geographic": 2, "Latitude": 40.708971, "Longitude": -74.012465 }, "geometry": { "type": "Point", "coordinates": [ -8239029.916200000792742, 4969509.261900000274181 ] } },
{ "type": "Feature", "properties": { "ATS": "02M427", "Building_C": "M620", "Location_C": "M427", "Name": "Manhattan Academy For Arts & Language", "Geographic": 2, "Latitude": 40.74651, "Longitude": -73.98107 }, "geometry": { "type": "Point", "coordinates": [ -8235535.040699999779463, 4975023.540600001811981 ] } },
{ "type": "Feature", "properties": { "ATS": "02M432", "Building_C": "M620", "Location_C": "M432", "Name": "Murray Hill Academy", "Geographic": 2, "Latitude": 40.74651, "Longitude": -73.98107 }, "geometry": { "type": "Point", "coordinates": [ -8235535.040699999779463, 4975023.540600001811981 ] } },
{ "type": "Feature", "properties": { "ATS": "02M437", "Building_C": "M440", "Location_C": "M437", "Name": "Hudson High School of Learning Technologies", "Geographic": 2, "Latitude": 40.743407, "Longitude": -74.00254 }, "geometry": { "type": "Point", "coordinates": [ -8237925.0702, 4974567.608499996364117 ] } },
{ "type": "Feature", "properties": { "ATS": "02M438", "Building_C": "M460", "Location_C": "M438", "Name": "International High School at Union Square", "Geographic": 2, "Latitude": 40.735361, "Longitude": -73.987064 }, "geometry": { "type": "Point", "coordinates": [ -8236202.289799999445677, 4973385.487300001084805 ] } },
{ "type": "Feature", "properties": { "ATS": "02M439", "Building_C": "M873", "Location_C": "M439", "Name": "Manhattan Village Academy", "Geographic": 2, "Latitude": 40.741963, "Longitude": -73.991966 }, "geometry": { "type": "Point", "coordinates": [ -8236747.977900000289083, 4974355.445000000298023 ] } },
{ "type": "Feature", "properties": { "ATS": "02M442", "Building_C": "M905", "Location_C": "M442", "Name": "Ballet Tech, NYC Public School for Dance", "Geographic": 2, "Latitude": 40.738521, "Longitude": -73.989481 }, "geometry": { "type": "Point", "coordinates": [ -8236471.348999999463558, 4973849.738600000739098 ] } },
{ "type": "Feature", "properties": { "ATS": "02M449", "Building_C": "M480", "Location_C": "M449", "Name": "Vanguard High School", "Geographic": 2, "Latitude": 40.765638, "Longitude": -73.959777 }, "geometry": { "type": "Point", "coordinates": [ -8233164.714800000190735, 4977834.538800001144409 ] } },
{ "type": "Feature", "properties": { "ATS": "02M459", "Building_C": "M480", "Location_C": "M459", "Name": "Manhattan International High School", "Geographic": 2, "Latitude": 40.765638, "Longitude": -73.959777 }, "geometry": { "type": "Point", "coordinates": [ -8233164.714800000190735, 4977834.538800001144409 ] } },
{ "type": "Feature", "properties": { "ATS": "02M475", "Building_C": "M477", "Location_C": "M475", "Name": "Stuyvesant High School", "Geographic": 2, "Latitude": 40.718025, "Longitude": -74.013921 }, "geometry": { "type": "Point", "coordinates": [ -8239191.997300000861287, 4970838.961599998176098 ] } },
{ "type": "Feature", "properties": { "ATS": "02M489", "Building_C": "M833", "Location_C": "M489", "Name": "High School of Economics and Finance", "Geographic": 2, "Latitude": 40.70927, "Longitude": -74.012328 }, "geometry": { "type": "Point", "coordinates": [ -8239014.665400000289083, 4969553.171099998056889 ] } },
{ "type": "Feature", "properties": { "ATS": "02M500", "Building_C": "M620", "Location_C": "M500", "Name": "Unity Center for Urban Technologies", "Geographic": 2, "Latitude": 40.74651, "Longitude": -73.98107 }, "geometry": { "type": "Point", "coordinates": [ -8235535.040699999779463, 4975023.540600001811981 ] } },
{ "type": "Feature", "properties": { "ATS": "02M507", "Building_C": "M625", "Location_C": "M507", "Name": "Urban Assembly Gateway School for Technology", "Geographic": 2, "Latitude": 40.763655, "Longitude": -73.990318 }, "geometry": { "type": "Point", "coordinates": [ -8236564.523399999365211, 4977543.08500000089407 ] } },
{ "type": "Feature", "properties": { "ATS": "02M519", "Building_C": "M480", "Location_C": "M519", "Name": "Talent Unlimited High School", "Geographic": 2, "Latitude": 40.765638, "Longitude": -73.959777 }, "geometry": { "type": "Point", "coordinates": [ -8233164.714800000190735, 4977834.538800001144409 ] } },
{ "type": "Feature", "properties": { "ATS": "02M520", "Building_C": "M520", "Location_C": "M520", "Name": "Murry Bergtraum High School for Business Careers", "Geographic": 2, "Latitude": 40.711441, "Longitude": -74.000851 }, "geometry": { "type": "Point", "coordinates": [ -8237737.051599999889731, 4969871.996100001037121 ] } },
{ "type": "Feature", "properties": { "ATS": "02M527", "Building_C": "M816", "Location_C": "M527", "Name": "P.S. 527 - East Side School for Social Action", "Geographic": 2, "Latitude": 40.780652, "Longitude": -73.947856 }, "geometry": { "type": "Point", "coordinates": [ -8231837.675200000405312, 4980041.521600000560284 ] } },
{ "type": "Feature", "properties": { "ATS": "02M529", "Building_C": "M486", "Location_C": "M529", "Name": "Jacqueline Kennedy Onassis High School", "Geographic": 2, "Latitude": 40.757626, "Longitude": -73.98346 }, "geometry": { "type": "Point", "coordinates": [ -8235801.0943, 4976657.018899999558926 ] } },
{ "type": "Feature", "properties": { "ATS": "02M531", "Building_C": "M896", "Location_C": "M531", "Name": "Repertory Company High School for Theatre Arts", "Geographic": 2, "Latitude": 40.756089, "Longitude": -73.984381 }, "geometry": { "type": "Point", "coordinates": [ -8235903.619599999859929, 4976431.142899997532368 ] } },
{ "type": "Feature", "properties": { "ATS": "02M533", "Building_C": "M460", "Location_C": "M533", "Name": "Union Square Academy for Health Sciences", "Geographic": 2, "Latitude": 40.735361, "Longitude": -73.987064 }, "geometry": { "type": "Point", "coordinates": [ -8236202.289799999445677, 4973385.487300001084805 ] } },
{ "type": "Feature", "properties": { "ATS": "02M534", "Building_C": "M883", "Location_C": "M534", "Name": "Harvest Collegiate High School", "Geographic": 2, "Latitude": 40.736416, "Longitude": -73.995731 }, "geometry": { "type": "Point", "coordinates": [ -8237167.095799999311566, 4973540.480099998414516 ] } },
{ "type": "Feature", "properties": { "ATS": "02M542", "Building_C": "M535", "Location_C": "M542", "Name": "Manhattan Bridges High School", "Geographic": 2, "Latitude": 40.765474, "Longitude": -73.9927 }, "geometry": { "type": "Point", "coordinates": [ -8236829.6864, 4977810.434299997985363 ] } },
{ "type": "Feature", "properties": { "ATS": "02M543", "Building_C": "M445", "Location_C": "M543", "Name": "New Design High School", "Geographic": 2, "Latitude": 40.717329, "Longitude": -73.989329 }, "geometry": { "type": "Point", "coordinates": [ -8236454.428400000557303, 4970736.738399997353554 ] } },
{ "type": "Feature", "properties": { "ATS": "02M544", "Building_C": "M834", "Location_C": "M544", "Name": "Independence High School", "Geographic": 2, "Latitude": 40.767848, "Longitude": -73.98861 }, "geometry": { "type": "Point", "coordinates": [ -8236374.389699999243021, 4978159.366400003433228 ] } },
{ "type": "Feature", "properties": { "ATS": "02M545", "Building_C": "M445", "Location_C": "M545", "Name": "High School for Dual Language and Asian Studies", "Geographic": 2, "Latitude": 40.717329, "Longitude": -73.989329 }, "geometry": { "type": "Point", "coordinates": [ -8236454.428400000557303, 4970736.738399997353554 ] } },
{ "type": "Feature", "properties": { "ATS": "02M546", "Building_C": "M460", "Location_C": "M546", "Name": "Academy for Software Engineering", "Geographic": 2, "Latitude": 40.735361, "Longitude": -73.987064 }, "geometry": { "type": "Point", "coordinates": [ -8236202.289799999445677, 4973385.487300001084805 ] } },
{ "type": "Feature", "properties": { "ATS": "02M550", "Building_C": "M451", "Location_C": "M550", "Name": "Liberty High School Academy for Newcomers", "Geographic": 2, "Latitude": 40.74182, "Longitude": -74.000238 }, "geometry": { "type": "Point", "coordinates": [ -8237668.812699999660254, 4974334.434600003063679 ] } },
{ "type": "Feature", "properties": { "ATS": "02M551", "Building_C": "M877", "Location_C": "M551", "Name": "Urban Assembly New York Harbor School", "Geographic": 2, "Latitude": 40.689493, "Longitude": -74.018941 }, "geometry": { "type": "Point", "coordinates": [ -8239750.82120000012219, 4966649.272600002586842 ] } },
{ "type": "Feature", "properties": { "ATS": "02M560", "Building_C": "M641", "Location_C": "M560", "Name": "High School M560 - City As School", "Geographic": 2, "Latitude": 40.729052, "Longitude": -74.006155 }, "geometry": { "type": "Point", "coordinates": [ -8238327.490199999883771, 4972458.66669999808073 ] } },
{ "type": "Feature", "properties": { "ATS": "02M565", "Building_C": "M480", "Location_C": "M565", "Name": "Urban Academy Laboratory High School", "Geographic": 2, "Latitude": 40.765638, "Longitude": -73.959777 }, "geometry": { "type": "Point", "coordinates": [ -8233164.714800000190735, 4977834.538800001144409 ] } },
{ "type": "Feature", "properties": { "ATS": "02M570", "Building_C": "M920", "Location_C": "M570", "Name": "Satellite Academy High School", "Geographic": 2, "Latitude": 40.747425, "Longitude": -73.990562 }, "geometry": { "type": "Point", "coordinates": [ -8236591.6853, 4975157.988099999725819 ] } },
{ "type": "Feature", "properties": { "ATS": "02M575", "Building_C": "M661", "Location_C": "M575", "Name": "Manhattan Comprehensive Night and Day High School", "Geographic": 2, "Latitude": 40.732699, "Longitude": -73.984333 }, "geometry": { "type": "Point", "coordinates": [ -8235898.276200000196695, 4972994.41669999808073 ] } },
{ "type": "Feature", "properties": { "ATS": "02M580", "Building_C": "M282", "Location_C": "M580", "Name": "Richard R. Green High School of Teaching", "Geographic": 2, "Latitude": 40.705688, "Longitude": -74.013303 }, "geometry": { "type": "Point", "coordinates": [ -8239123.201899999752641, 4969027.154600001871586 ] } },
{ "type": "Feature", "properties": { "ATS": "02M586", "Building_C": "M807", "Location_C": "M586", "Name": "Harvey Milk High School", "Geographic": 2, "Latitude": 40.729661, "Longitude": -73.992343 }, "geometry": { "type": "Point", "coordinates": [ -8236789.94539999961853, 4972548.127700001001358 ] } },
{ "type": "Feature", "properties": { "ATS": "02M600", "Building_C": "M600", "Location_C": "M600", "Name": "The High School of Fashion Industries", "Geographic": 2, "Latitude": 40.745677, "Longitude": -73.996354 }, "geometry": { "type": "Point", "coordinates": [ -8237236.447799999266863, 4974901.14360000193119 ] } },
{ "type": "Feature", "properties": { "ATS": "02M605", "Building_C": "M440", "Location_C": "M605", "Name": "Humanities Preparatory Academy", "Geographic": 2, "Latitude": 40.743407, "Longitude": -74.00254 }, "geometry": { "type": "Point", "coordinates": [ -8237925.0702, 4974567.608499996364117 ] } },
{ "type": "Feature", "properties": { "ATS": "02M615", "Building_C": "M615", "Location_C": "M615", "Name": "Chelsea Career and Technical Education High School", "Geographic": 2, "Latitude": 40.72463, "Longitude": -74.005058 }, "geometry": { "type": "Point", "coordinates": [ -8238205.372700000181794, 4971809.107299998402596 ] } },
{ "type": "Feature", "properties": { "ATS": "02M630", "Building_C": "M488", "Location_C": "M630", "Name": "Art and Design High School", "Geographic": 2, "Latitude": 40.759248, "Longitude": -73.967204 }, "geometry": { "type": "Point", "coordinates": [ -8233991.4847, 4976895.391999997198582 ] } },
{ "type": "Feature", "properties": { "ATS": "02M655", "Building_C": "M645", "Location_C": "M655", "Name": "The High School for Climate Justice", "Geographic": 2, "Latitude": 40.783286, "Longitude": -73.945933 }, "geometry": { "type": "Point", "coordinates": [ -8231623.607799999415874, 4980428.75789999961853 ] } },
{ "type": "Feature", "properties": { "ATS": "02M896", "Building_C": "M282", "Location_C": "M896", "Name": "Lower Manhattan Community Middle School", "Geographic": 2, "Latitude": 40.705688, "Longitude": -74.013303 }, "geometry": { "type": "Point", "coordinates": [ -8239123.201899999752641, 4969027.154600001871586 ] } },
{ "type": "Feature", "properties": { "ATS": "02M972", "Building_C": "M882", "Location_C": "M972", "Name": "Office of Academic Policy", "Geographic": 2, "Latitude": 40.747398, "Longitude": -73.992832 }, "geometry": { "type": "Point", "coordinates": [ -8236844.380599999800324, 4975154.020700000226498 ] } },
{ "type": "Feature", "properties": { "ATS": "03M009", "Building_C": "M009", "Location_C": "M009", "Name": "P.S. 009 Sarah Anderson", "Geographic": 3, "Latitude": 40.785234, "Longitude": -73.974256 }, "geometry": { "type": "Point", "coordinates": [ -8234776.509700000286102, 4980715.152000002563 ] } },
{ "type": "Feature", "properties": { "ATS": "03M054", "Building_C": "M054", "Location_C": "M054", "Name": "J.H.S. 054 Booker T. Washington", "Geographic": 3, "Latitude": 40.8007, "Longitude": -73.96327 }, "geometry": { "type": "Point", "coordinates": [ -8233553.55379999987781, 4982989.255199998617172 ] } },
{ "type": "Feature", "properties": { "ATS": "03M075", "Building_C": "M075", "Location_C": "M075", "Name": "P.S. 075 Emily Dickinson", "Geographic": 3, "Latitude": 40.795109, "Longitude": -73.973996 }, "geometry": { "type": "Point", "coordinates": [ -8234747.566700000315905, 4982167.099799998104572 ] } },
{ "type": "Feature", "properties": { "ATS": "03M076", "Building_C": "M076", "Location_C": "M076", "Name": "P.S. 076 A. Philip Randolph", "Geographic": 3, "Latitude": 40.806534, "Longitude": -73.951451 }, "geometry": { "type": "Point", "coordinates": [ -8232237.868699999526143, 4983847.217600002884865 ] } },
{ "type": "Feature", "properties": { "ATS": "03M084", "Building_C": "M084", "Location_C": "M084", "Name": "P.S. 084 Lillian Weber", "Geographic": 3, "Latitude": 40.789479, "Longitude": -73.968419 }, "geometry": { "type": "Point", "coordinates": [ -8234126.7379, 4981339.27929999679327 ] } },
{ "type": "Feature", "properties": { "ATS": "03M087", "Building_C": "M087", "Location_C": "M087", "Name": "P.S. 087 William Sherman", "Geographic": 3, "Latitude": 40.78171, "Longitude": -73.97802 }, "geometry": { "type": "Point", "coordinates": [ -8235195.51630000025034, 4980197.061099998652935 ] } },
{ "type": "Feature", "properties": { "ATS": "03M145", "Building_C": "M145", "Location_C": "M145", "Name": "P.S. 145, The Bloomingdale School", "Geographic": 3, "Latitude": 40.799098, "Longitude": -73.965611 }, "geometry": { "type": "Point", "coordinates": [ -8233814.152699999511242, 4982753.674400001764297 ] } },
{ "type": "Feature", "properties": { "ATS": "03M149", "Building_C": "M207", "Location_C": "M149", "Name": "P.S. 149 Sojourner Truth", "Geographic": 3, "Latitude": 40.802649, "Longitude": -73.948088 }, "geometry": { "type": "Point", "coordinates": [ -8231863.501299999654293, 4983275.8716000020504 ] } },
{ "type": "Feature", "properties": { "ATS": "03M163", "Building_C": "M163", "Location_C": "M163", "Name": "P.S. 163 Alfred E. Smith", "Geographic": 3, "Latitude": 40.795163, "Longitude": -73.96847 }, "geometry": { "type": "Point", "coordinates": [ -8234132.415200000628829, 4982175.040100000798702 ] } },
{ "type": "Feature", "properties": { "ATS": "03M165", "Building_C": "M165", "Location_C": "M165", "Name": "P.S. 165 Robert E. Simon", "Geographic": 3, "Latitude": 40.802653, "Longitude": -73.965949 }, "geometry": { "type": "Point", "coordinates": [ -8233851.778699999675155, 4983276.459799997508526 ] } },
{ "type": "Feature", "properties": { "ATS": "03M166", "Building_C": "M166", "Location_C": "M166", "Name": "P.S. 166 The Richard Rodgers School of The Arts an", "Geographic": 3, "Latitude": 40.788925, "Longitude": -73.972557 }, "geometry": { "type": "Point", "coordinates": [ -8234587.377900000661612, 4981257.824400000274181 ] } },
{ "type": "Feature", "properties": { "ATS": "03M180", "Building_C": "M180", "Location_C": "M180", "Name": "P.S. 180 Hugo Newman", "Geographic": 3, "Latitude": 40.80757, "Longitude": -73.955861 }, "geometry": { "type": "Point", "coordinates": [ -8232728.787699999287724, 4983999.58219999819994 ] } },
{ "type": "Feature", "properties": { "ATS": "03M185", "Building_C": "M185", "Location_C": "M185", "Name": "The Locke School of Arts and Engineering", "Geographic": 3, "Latitude": 40.798461, "Longitude": -73.950146 }, "geometry": { "type": "Point", "coordinates": [ -8232092.596799999475479, 4982660.002400003373623 ] } },
{ "type": "Feature", "properties": { "ATS": "03M191", "Building_C": "M342", "Location_C": "M191", "Name": "The Riverside School for Makers and Artists", "Geographic": 3, "Latitude": 40.7722, "Longitude": -73.990902 }, "geometry": { "type": "Point", "coordinates": [ -8236629.534, 4978799.058600001037121 ] } },
{ "type": "Feature", "properties": { "ATS": "03M199", "Building_C": "M199", "Location_C": "M199", "Name": "P.S. 199 Jessie Isador Straus", "Geographic": 3, "Latitude": 40.777603, "Longitude": -73.984423 }, "geometry": { "type": "Point", "coordinates": [ -8235908.295, 4979593.293499998748302 ] } },
{ "type": "Feature", "properties": { "ATS": "03M241", "Building_C": "M113", "Location_C": "M241", "Name": "STEM Institute of Manhattan", "Geographic": 3, "Latitude": 40.801573, "Longitude": -73.955583 }, "geometry": { "type": "Point", "coordinates": [ -8232697.840900000184774, 4983117.636 ] } },
{ "type": "Feature", "properties": { "ATS": "03M242", "Building_C": "M144", "Location_C": "M242", "Name": "P.S. 242 - The Young Diplomats Magnet Academy", "Geographic": 3, "Latitude": 40.806055, "Longitude": -73.948385 }, "geometry": { "type": "Point", "coordinates": [ -8231896.563200000673532, 4983776.771899998188019 ] } },
{ "type": "Feature", "properties": { "ATS": "03M243", "Building_C": "M009", "Location_C": "M243", "Name": "M.S. 243 Center School", "Geographic": 3, "Latitude": 40.785234, "Longitude": -73.974256 }, "geometry": { "type": "Point", "coordinates": [ -8234776.509700000286102, 4980715.152000002563 ] } },
{ "type": "Feature", "properties": { "ATS": "03M245", "Building_C": "M044", "Location_C": "M245", "Name": "M.S. M245 The Computer School", "Geographic": 3, "Latitude": 40.780536, "Longitude": -73.977602 }, "geometry": { "type": "Point", "coordinates": [ -8235148.9847, 4980024.468299999833107 ] } },
{ "type": "Feature", "properties": { "ATS": "03M247", "Building_C": "M044", "Location_C": "M247", "Name": "M.S. M247 Dual Language Middle School", "Geographic": 3, "Latitude": 40.780536, "Longitude": -73.977602 }, "geometry": { "type": "Point", "coordinates": [ -8235148.9847, 4980024.468299999833107 ] } },
{ "type": "Feature", "properties": { "ATS": "03M250", "Building_C": "M075", "Location_C": "M250", "Name": "M.S. 250 West Side Collaborative Middle School", "Geographic": 3, "Latitude": 40.795109, "Longitude": -73.973996 }, "geometry": { "type": "Point", "coordinates": [ -8234747.566700000315905, 4982167.099799998104572 ] } },
{ "type": "Feature", "properties": { "ATS": "03M256", "Building_C": "M118", "Location_C": "M256", "Name": "Lafayette Academy", "Geographic": 3, "Latitude": 40.791395, "Longitude": -73.971011 }, "geometry": { "type": "Point", "coordinates": [ -8234415.278000000864267, 4981620.994999997317791 ] } },
{ "type": "Feature", "properties": { "ATS": "03M258", "Building_C": "M118", "Location_C": "M258", "Name": "Community Action School - MS 258", "Geographic": 3, "Latitude": 40.791395, "Longitude": -73.971011 }, "geometry": { "type": "Point", "coordinates": [ -8234415.278000000864267, 4981620.994999997317791 ] } },
{ "type": "Feature", "properties": { "ATS": "03M291", "Building_C": "M837", "Location_C": "M291", "Name": "West End Secondary School", "Geographic": 3, "Latitude": 40.772608, "Longitude": -73.988338 }, "geometry": { "type": "Point", "coordinates": [ -8236344.1108, 4978859.031900003552437 ] } },
{ "type": "Feature", "properties": { "ATS": "03M307", "Building_C": "M490", "Location_C": "M307", "Name": "Urban Assembly School for Media Studies, The", "Geographic": 3, "Latitude": 40.774891, "Longitude": -73.985608 }, "geometry": { "type": "Point", "coordinates": [ -8236040.208599999547005, 4979194.624499998986721 ] } },
{ "type": "Feature", "properties": { "ATS": "03M333", "Building_C": "M118", "Location_C": "M333", "Name": "P.S. 333 Manhattan School for Children", "Geographic": 3, "Latitude": 40.791395, "Longitude": -73.971011 }, "geometry": { "type": "Point", "coordinates": [ -8234415.278000000864267, 4981620.994999997317791 ] } },
{ "type": "Feature", "properties": { "ATS": "03M334", "Building_C": "M044", "Location_C": "M334", "Name": "The Anderson School", "Geographic": 3, "Latitude": 40.780536, "Longitude": -73.977602 }, "geometry": { "type": "Point", "coordinates": [ -8235148.9847, 4980024.468299999833107 ] } },
{ "type": "Feature", "properties": { "ATS": "03M402", "Building_C": "M470", "Location_C": "M402", "Name": "The Urban Assembly School for Green Careers", "Geographic": 3, "Latitude": 40.786134, "Longitude": -73.974483 }, "geometry": { "type": "Point", "coordinates": [ -8234801.77930000051856, 4980847.472499996423721 ] } },
{ "type": "Feature", "properties": { "ATS": "03M403", "Building_C": "M470", "Location_C": "M403", "Name": "The Global Learning Collaborative", "Geographic": 3, "Latitude": 40.786134, "Longitude": -73.974483 }, "geometry": { "type": "Point", "coordinates": [ -8234801.77930000051856, 4980847.472499996423721 ] } },
{ "type": "Feature", "properties": { "ATS": "03M404", "Building_C": "M470", "Location_C": "M404", "Name": "Innovation Diploma Plus", "Geographic": 3, "Latitude": 40.786134, "Longitude": -73.974483 }, "geometry": { "type": "Point", "coordinates": [ -8234801.77930000051856, 4980847.472499996423721 ] } },
{ "type": "Feature", "properties": { "ATS": "03M415", "Building_C": "M088", "Location_C": "M415", "Name": "Wadleigh Secondary School for the Performing & Vis", "Geographic": 3, "Latitude": 40.80261, "Longitude": -73.954152 }, "geometry": { "type": "Point", "coordinates": [ -8232538.542700000107288, 4983270.136200003325939 ] } },
{ "type": "Feature", "properties": { "ATS": "03M417", "Building_C": "M470", "Location_C": "M417", "Name": "Frank McCourt High School", "Geographic": 3, "Latitude": 40.786134, "Longitude": -73.974483 }, "geometry": { "type": "Point", "coordinates": [ -8234801.77930000051856, 4980847.472499996423721 ] } },
{ "type": "Feature", "properties": { "ATS": "03M421", "Building_C": "M534", "Location_C": "M421", "Name": "West Prep Academy", "Geographic": 3, "Latitude": 40.80209, "Longitude": -73.96561 }, "geometry": { "type": "Point", "coordinates": [ -8233814.041400000452995, 4983193.665200002491474 ] } },
{ "type": "Feature", "properties": { "ATS": "03M452", "Building_C": "M191", "Location_C": "M452", "Name": "P.S. 452", "Geographic": 3, "Latitude": 40.771603, "Longitude": -73.987515 }, "geometry": { "type": "Point", "coordinates": [ -8236252.494899999350309, 4978711.304200001060963 ] } },
{ "type": "Feature", "properties": { "ATS": "03M479", "Building_C": "M912", "Location_C": "M479", "Name": "Beacon High School", "Geographic": 2, "Latitude": 40.760858, "Longitude": -73.996262 }, "geometry": { "type": "Point", "coordinates": [ -8237226.206399999558926, 4977132.007299996912479 ] } },
{ "type": "Feature", "properties": { "ATS": "03M485", "Building_C": "M485", "Location_C": "M485", "Name": "Fiorello H. LaGuardia High School of Music & Art a", "Geographic": 3, "Latitude": 40.774202, "Longitude": -73.985976 }, "geometry": { "type": "Point", "coordinates": [ -8236081.174200000241399, 4979093.342799998819828 ] } },
{ "type": "Feature", "properties": { "ATS": "03M492", "Building_C": "M490", "Location_C": "M492", "Name": "High School for Law, Advocacy and Community Justic", "Geographic": 3, "Latitude": 40.774891, "Longitude": -73.985608 }, "geometry": { "type": "Point", "coordinates": [ -8236040.208599999547005, 4979194.624499998986721 ] } },
{ "type": "Feature", "properties": { "ATS": "03M494", "Building_C": "M490", "Location_C": "M494", "Name": "High School of Arts and Technology", "Geographic": 3, "Latitude": 40.774891, "Longitude": -73.985608 }, "geometry": { "type": "Point", "coordinates": [ -8236040.208599999547005, 4979194.624499998986721 ] } },
{ "type": "Feature", "properties": { "ATS": "03M541", "Building_C": "M490", "Location_C": "M541", "Name": "Manhattan / Hunter Science High School", "Geographic": 3, "Latitude": 40.774891, "Longitude": -73.985608 }, "geometry": { "type": "Point", "coordinates": [ -8236040.208599999547005, 4979194.624499998986721 ] } },
{ "type": "Feature", "properties": { "ATS": "03M610", "Building_C": "M506", "Location_C": "M610", "Name": "Young Women's Leadership School", "Geographic": 3, "Latitude": 40.797136, "Longitude": -73.966779 }, "geometry": { "type": "Point", "coordinates": [ -8233944.173900000751019, 4982465.161700002849102 ] } },
{ "type": "Feature", "properties": { "ATS": "03M859", "Building_C": "M932", "Location_C": "M859", "Name": "Special Music School", "Geographic": 3, "Latitude": 40.775256, "Longitude": -73.982976 }, "geometry": { "type": "Point", "coordinates": [ -8235747.215700000524521, 4979248.279200002551079 ] } },
{ "type": "Feature", "properties": { "ATS": "03M860", "Building_C": "M088", "Location_C": "M860", "Name": "Frederick Douglass Academy II Secondary School", "Geographic": 3, "Latitude": 40.80261, "Longitude": -73.954152 }, "geometry": { "type": "Point", "coordinates": [ -8232538.542700000107288, 4983270.136200003325939 ] } },
{ "type": "Feature", "properties": { "ATS": "03M862", "Building_C": "M165", "Location_C": "M862", "Name": "Mott Hall II", "Geographic": 3, "Latitude": 40.802653, "Longitude": -73.965949 }, "geometry": { "type": "Point", "coordinates": [ -8233851.778699999675155, 4983276.459799997508526 ] } },
{ "type": "Feature", "properties": { "ATS": "04M007", "Building_C": "M007", "Location_C": "M007", "Name": "P.S. 007 Samuel Stern", "Geographic": 4, "Latitude": 40.800616, "Longitude": -73.939374 }, "geometry": { "type": "Point", "coordinates": [ -8230893.463300000876188, 4982976.902500003576279 ] } },
{ "type": "Feature", "properties": { "ATS": "04M012", "Building_C": "M117", "Location_C": "M012", "Name": "Tag Young Scholars", "Geographic": 4, "Latitude": 40.792556, "Longitude": -73.942285 }, "geometry": { "type": "Point", "coordinates": [ -8231217.5143, 4981791.704599998891354 ] } },
{ "type": "Feature", "properties": { "ATS": "04M037", "Building_C": "M045", "Location_C": "M037", "Name": "River East Elementary", "Geographic": 4, "Latitude": 40.799265, "Longitude": -73.93374 }, "geometry": { "type": "Point", "coordinates": [ -8230266.289200000464916, 4982778.232100002467632 ] } },
{ "type": "Feature", "properties": { "ATS": "04M038", "Building_C": "M121", "Location_C": "M038", "Name": "P.S. 38 Roberto Clemente", "Geographic": 4, "Latitude": 40.788668, "Longitude": -73.944762 }, "geometry": { "type": "Point", "coordinates": [ -8231493.252699999138713, 4981220.037799999117851 ] } },
{ "type": "Feature", "properties": { "ATS": "04M057", "Building_C": "M057", "Location_C": "M057", "Name": "James Weldon Johnson", "Geographic": 4, "Latitude": 40.797205, "Longitude": -73.941598 }, "geometry": { "type": "Point", "coordinates": [ -8231141.037799999117851, 4982475.30799999833107 ] } },
{ "type": "Feature", "properties": { "ATS": "04M072", "Building_C": "M072", "Location_C": "M072", "Name": "The Lexington Academy", "Geographic": 4, "Latitude": 40.791444, "Longitude": -73.94745 }, "geometry": { "type": "Point", "coordinates": [ -8231792.479499999433756, 4981628.199799999594688 ] } },
{ "type": "Feature", "properties": { "ATS": "04M083", "Building_C": "M083", "Location_C": "M083", "Name": "P.S. 083 Luis Munoz Rivera", "Geographic": 4, "Latitude": 40.793363, "Longitude": -73.941955 }, "geometry": { "type": "Point", "coordinates": [ -8231180.778899999335408, 4981910.365000002086163 ] } },
{ "type": "Feature", "properties": { "ATS": "04M096", "Building_C": "M096", "Location_C": "M096", "Name": "P.S. 096 Joseph Lanzetta", "Geographic": 4, "Latitude": 40.79969, "Longitude": -73.937179 }, "geometry": { "type": "Point", "coordinates": [ -8230649.117000000551343, 4982840.729800000786781 ] } },
{ "type": "Feature", "properties": { "ATS": "04M102", "Building_C": "M102", "Location_C": "M102", "Name": "P.S. 102 Jacques Cartier", "Geographic": 4, "Latitude": 40.795, "Longitude": -73.938418 }, "geometry": { "type": "Point", "coordinates": [ -8230787.041799999773502, 4982151.071999996900558 ] } },
{ "type": "Feature", "properties": { "ATS": "04M108", "Building_C": "M108", "Location_C": "M108", "Name": "P.S. 108 Assemblyman Angelo Del Toro Educational C", "Geographic": 4, "Latitude": 40.795032, "Longitude": -73.947855 }, "geometry": { "type": "Point", "coordinates": [ -8231837.56389999948442, 4982155.777400001883507 ] } },
{ "type": "Feature", "properties": { "ATS": "04M112", "Building_C": "M112", "Location_C": "M112", "Name": "P.S. 112 Jose Celso Barbosa", "Geographic": 4, "Latitude": 40.796889, "Longitude": -73.930528 }, "geometry": { "type": "Point", "coordinates": [ -8229908.731000000610948, 4982428.840899996459484 ] } },
{ "type": "Feature", "properties": { "ATS": "04M146", "Building_C": "M146", "Location_C": "M146", "Name": "P.S. 146 Ann M. Short", "Geographic": 4, "Latitude": 40.789535, "Longitude": -73.938727 }, "geometry": { "type": "Point", "coordinates": [ -8230821.439500000327826, 4981347.513099998235703 ] } },
{ "type": "Feature", "properties": { "ATS": "04M155", "Building_C": "M155", "Location_C": "M155", "Name": "P.S. 155 William Paca", "Geographic": 4, "Latitude": 40.797507, "Longitude": -73.935895 }, "geometry": { "type": "Point", "coordinates": [ -8230506.182700000703335, 4982519.716700002551079 ] } },
{ "type": "Feature", "properties": { "ATS": "04M171", "Building_C": "M171", "Location_C": "M171", "Name": "P.S. 171 Patrick Henry", "Geographic": 4, "Latitude": 40.792302, "Longitude": -73.951425 }, "geometry": { "type": "Point", "coordinates": [ -8232234.97440000064671, 4981754.357100002467632 ] } },
{ "type": "Feature", "properties": { "ATS": "04M182", "Building_C": "M083", "Location_C": "M182", "Name": "The Bilingual Bicultural School", "Geographic": 4, "Latitude": 40.793363, "Longitude": -73.941955 }, "geometry": { "type": "Point", "coordinates": [ -8231180.778899999335408, 4981910.365000002086163 ] } },
{ "type": "Feature", "properties": { "ATS": "04M206", "Building_C": "M206", "Location_C": "M206", "Name": "P.S. 206 Jose Celso Barbosa", "Geographic": 4, "Latitude": 40.796889, "Longitude": -73.930528 }, "geometry": { "type": "Point", "coordinates": [ -8229908.731000000610948, 4982428.840899996459484 ] } },
{ "type": "Feature", "properties": { "ATS": "04M224", "Building_C": "M099", "Location_C": "M224", "Name": "M.S. 224 Manhattan East School for Arts & Academic", "Geographic": 4, "Latitude": 40.785107, "Longitude": -73.942154 }, "geometry": { "type": "Point", "coordinates": [ -8231202.931399999186397, 4980696.48030000180006 ] } },
{ "type": "Feature", "properties": { "ATS": "04M310", "Building_C": "M646", "Location_C": "M310", "Name": "The Judith S. Kaye School", "Geographic": 4, "Latitude": 40.784112, "Longitude": -73.945647 }, "geometry": { "type": "Point", "coordinates": [ -8231591.770400000736117, 4980550.195000000298023 ] } },
{ "type": "Feature", "properties": { "ATS": "04M372", "Building_C": "M117", "Location_C": "M372", "Name": "Esperanza Preparatory Academy", "Geographic": 4, "Latitude": 40.792556, "Longitude": -73.942285 }, "geometry": { "type": "Point", "coordinates": [ -8231217.5143, 4981791.704599998891354 ] } },
{ "type": "Feature", "properties": { "ATS": "04M375", "Building_C": "M101", "Location_C": "M375", "Name": "Mosaic Preparatory Academy", "Geographic": 4, "Latitude": 40.796098, "Longitude": -73.944546 }, "geometry": { "type": "Point", "coordinates": [ -8231469.207699999213219, 4982312.527000002563 ] } },
{ "type": "Feature", "properties": { "ATS": "04M377", "Building_C": "M155", "Location_C": "M377", "Name": "Renaissance School of the Arts", "Geographic": 4, "Latitude": 40.797507, "Longitude": -73.935895 }, "geometry": { "type": "Point", "coordinates": [ -8230506.182700000703335, 4982519.716700002551079 ] } },
{ "type": "Feature", "properties": { "ATS": "04M435", "Building_C": "M435", "Location_C": "M435", "Name": "Manhattan Center for Science and Mathematics", "Geographic": 4, "Latitude": 40.794184, "Longitude": -73.932868 }, "geometry": { "type": "Point", "coordinates": [ -8230169.218599999323487, 4982031.085400000214577 ] } },
{ "type": "Feature", "properties": { "ATS": "04M495", "Building_C": "M495", "Location_C": "M495", "Name": "Park East High School", "Geographic": 4, "Latitude": 40.790191, "Longitude": -73.944092 }, "geometry": { "type": "Point", "coordinates": [ -8231418.668600000441074, 4981443.965999998152256 ] } },
{ "type": "Feature", "properties": { "ATS": "04M497", "Building_C": "M013", "Location_C": "M497", "Name": "Central Park East I", "Geographic": 4, "Latitude": 40.793649, "Longitude": -73.948488 }, "geometry": { "type": "Point", "coordinates": [ -8231908.029100000858307, 4981952.418399997055531 ] } },
{ "type": "Feature", "properties": { "ATS": "04M505", "Building_C": "M895", "Location_C": "M505", "Name": "Edward A. Reynolds West Side High School", "Geographic": 4, "Latitude": 40.792932, "Longitude": -73.947171 }, "geometry": { "type": "Point", "coordinates": [ -8231761.421299999579787, 4981846.991099998354912 ] } },
{ "type": "Feature", "properties": { "ATS": "04M555", "Building_C": "M013", "Location_C": "M555", "Name": "Central Park East High School", "Geographic": 4, "Latitude": 40.793649, "Longitude": -73.948488 }, "geometry": { "type": "Point", "coordinates": [ -8231908.029100000858307, 4981952.418399997055531 ] } },
{ "type": "Feature", "properties": { "ATS": "04M680", "Building_C": "M107", "Location_C": "M680", "Name": "Heritage School, The", "Geographic": 4, "Latitude": 40.791966, "Longitude": -73.946879 }, "geometry": { "type": "Point", "coordinates": [ -8231728.915999999269843, 4981704.952600002288818 ] } },
{ "type": "Feature", "properties": { "ATS": "04M825", "Building_C": "M435", "Location_C": "M825", "Name": "Isaac Newton Middle School for Math & Science", "Geographic": 4, "Latitude": 40.794184, "Longitude": -73.932868 }, "geometry": { "type": "Point", "coordinates": [ -8230169.218599999323487, 4982031.085400000214577 ] } },
{ "type": "Feature", "properties": { "ATS": "04M964", "Building_C": "M050", "Location_C": "M964", "Name": "Central Park East II", "Geographic": 4, "Latitude": 40.785559, "Longitude": -73.940919 }, "geometry": { "type": "Point", "coordinates": [ -8231065.451899999752641, 4980762.934199996292591 ] } },
{ "type": "Feature", "properties": { "ATS": "05M030", "Building_C": "M030", "Location_C": "M030", "Name": "P.S. 030 Hernandez/Hughes", "Geographic": 5, "Latitude": 40.805653, "Longitude": -73.935461 }, "geometry": { "type": "Point", "coordinates": [ -8230457.870100000873208, 4983717.650799997150898 ] } },
{ "type": "Feature", "properties": { "ATS": "05M036", "Building_C": "M036", "Location_C": "M036", "Name": "P.S. 036 Margaret Douglas", "Geographic": 5, "Latitude": 40.810705, "Longitude": -73.957409 }, "geometry": { "type": "Point", "coordinates": [ -8232901.110300000756979, 4984460.661399997770786 ] } },
{ "type": "Feature", "properties": { "ATS": "05M046", "Building_C": "M046", "Location_C": "M046", "Name": "P.S. 046 Arthur Tappan", "Geographic": 5, "Latitude": 40.8304, "Longitude": -73.9363 }, "geometry": { "type": "Point", "coordinates": [ -8230551.267100000753999, 4987357.795999996364117 ] } },
{ "type": "Feature", "properties": { "ATS": "05M092", "Building_C": "M092", "Location_C": "M092", "Name": "P.S. 092 Mary McLeod Bethune", "Geographic": 5, "Latitude": 40.814917, "Longitude": -73.945838 }, "geometry": { "type": "Point", "coordinates": [ -8231613.032400000840425, 4985080.1743 ] } },
{ "type": "Feature", "properties": { "ATS": "05M123", "Building_C": "M123", "Location_C": "M123", "Name": "P.S. 123 Mahalia Jackson", "Geographic": 5, "Latitude": 40.820216, "Longitude": -73.944551 }, "geometry": { "type": "Point", "coordinates": [ -8231469.7643, 4985859.62219999730587 ] } },
{ "type": "Feature", "properties": { "ATS": "05M125", "Building_C": "M125", "Location_C": "M125", "Name": "P.S. 125 Ralph Bunche", "Geographic": 5, "Latitude": 40.810793, "Longitude": -73.955722 }, "geometry": { "type": "Point", "coordinates": [ -8232713.314300000667572, 4984473.604299999773502 ] } },
{ "type": "Feature", "properties": { "ATS": "05M129", "Building_C": "M129", "Location_C": "M129", "Name": "P.S. 129 John H. Finley", "Geographic": 5, "Latitude": 40.814914, "Longitude": -73.95202 }, "geometry": { "type": "Point", "coordinates": [ -8232301.209499999880791, 4985079.73309999704361 ] } },
{ "type": "Feature", "properties": { "ATS": "05M133", "Building_C": "M133", "Location_C": "M133", "Name": "P.S. 133 Fred R Moore", "Geographic": 5, "Latitude": 40.809665, "Longitude": -73.939178 }, "geometry": { "type": "Point", "coordinates": [ -8230871.644600000232458, 4984307.701300002634525 ] } },
{ "type": "Feature", "properties": { "ATS": "05M148", "Building_C": "M136", "Location_C": "M148", "Name": "Eagle Academy for Young Men of Harlem", "Geographic": 5, "Latitude": 40.817228, "Longitude": -73.947151 }, "geometry": { "type": "Point", "coordinates": [ -8231759.194900000467896, 4985420.099500000476837 ] } },
{ "type": "Feature", "properties": { "ATS": "05M154", "Building_C": "M154", "Location_C": "M154", "Name": "P.S. 154 Harriet Tubman", "Geographic": 5, "Latitude": 40.810499, "Longitude": -73.948902 }, "geometry": { "type": "Point", "coordinates": [ -8231954.115399999544024, 4984430.363399997353554 ] } },
{ "type": "Feature", "properties": { "ATS": "05M157", "Building_C": "M501", "Location_C": "M157", "Name": "The Urban Assembly School for Global Commerce", "Geographic": 5, "Latitude": 40.807019, "Longitude": -73.938714 }, "geometry": { "type": "Point", "coordinates": [ -8230819.99239999987185, 4983918.546300001442432 ] } },
{ "type": "Feature", "properties": { "ATS": "05M161", "Building_C": "M161", "Location_C": "M161", "Name": "P.S. 161 Pedro Albizu Campos", "Geographic": 5, "Latitude": 40.817719, "Longitude": -73.952476 }, "geometry": { "type": "Point", "coordinates": [ -8232351.971200000494719, 4985492.322200000286102 ] } },
{ "type": "Feature", "properties": { "ATS": "05M175", "Building_C": "M175", "Location_C": "M175", "Name": "P.S. 175 Henry H Garnet", "Geographic": 5, "Latitude": 40.814388, "Longitude": -73.942706 }, "geometry": { "type": "Point", "coordinates": [ -8231264.379799999296665, 4985002.365299999713898 ] } },
{ "type": "Feature", "properties": { "ATS": "05M194", "Building_C": "M194", "Location_C": "M194", "Name": "P.S. 194 Countee Cullen", "Geographic": 5, "Latitude": 40.821208, "Longitude": -73.941111 }, "geometry": { "type": "Point", "coordinates": [ -8231086.825200000777841, 4986005.545699998736382 ] } },
{ "type": "Feature", "properties": { "ATS": "05M197", "Building_C": "M197", "Location_C": "M197", "Name": "P.S. 197 John B. Russwurm", "Geographic": 5, "Latitude": 40.813532, "Longitude": -73.938347 }, "geometry": { "type": "Point", "coordinates": [ -8230779.1381, 4984876.460299998521805 ] } },
{ "type": "Feature", "properties": { "ATS": "05M200", "Building_C": "M200", "Location_C": "M200", "Name": "P.S. 200- The James McCune Smith School", "Geographic": 5, "Latitude": 40.823988, "Longitude": -73.935746 }, "geometry": { "type": "Point", "coordinates": [ -8230489.596100000664592, 4986414.496399998664856 ] } },
{ "type": "Feature", "properties": { "ATS": "05M285", "Building_C": "M911", "Location_C": "M285", "Name": "Harlem Renaissance High School", "Geographic": 5, "Latitude": 40.807692, "Longitude": -73.939974 }, "geometry": { "type": "Point", "coordinates": [ -8230960.254899999126792, 4984017.524899996817112 ] } },
{ "type": "Feature", "properties": { "ATS": "05M286", "Building_C": "M043", "Location_C": "M286", "Name": "Urban Assembly Academy for Future Leaders", "Geographic": 5, "Latitude": 40.815747, "Longitude": -73.95552 }, "geometry": { "type": "Point", "coordinates": [ -8232690.8278, 4985202.257700003683567 ] } },
{ "type": "Feature", "properties": { "ATS": "05M304", "Building_C": "M136", "Location_C": "M304", "Name": "Mott Hall High School", "Geographic": 5, "Latitude": 40.817228, "Longitude": -73.947151 }, "geometry": { "type": "Point", "coordinates": [ -8231759.194900000467896, 4985420.099500000476837 ] } },
{ "type": "Feature", "properties": { "ATS": "05M318", "Building_C": "M371", "Location_C": "M318", "Name": "Thurgood Marshall Academy Lower School", "Geographic": 5, "Latitude": 40.825831, "Longitude": -73.937833 }, "geometry": { "type": "Point", "coordinates": [ -8230721.9199, 4986685.619499996304512 ] } },
{ "type": "Feature", "properties": { "ATS": "05M362", "Building_C": "M125", "Location_C": "M362", "Name": "Columbia Secondary School", "Geographic": 5, "Latitude": 40.810793, "Longitude": -73.955722 }, "geometry": { "type": "Point", "coordinates": [ -8232713.314300000667572, 4984473.604299999773502 ] } },
{ "type": "Feature", "properties": { "ATS": "05M369", "Building_C": "M043", "Location_C": "M369", "Name": "Urban Assembly School for the Performing Arts", "Geographic": 5, "Latitude": 40.815747, "Longitude": -73.95552 }, "geometry": { "type": "Point", "coordinates": [ -8232690.8278, 4985202.257700003683567 ] } },
{ "type": "Feature", "properties": { "ATS": "05M371", "Building_C": "M129", "Location_C": "M371", "Name": "School of Earth Exploration and Discovery Harlem (", "Geographic": 5, "Latitude": 40.814914, "Longitude": -73.95202 }, "geometry": { "type": "Point", "coordinates": [ -8232301.209499999880791, 4985079.73309999704361 ] } },
{ "type": "Feature", "properties": { "ATS": "05M499", "Building_C": "M010", "Location_C": "M499", "Name": "Frederick Douglass Academy", "Geographic": 5, "Latitude": 40.823988, "Longitude": -73.935746 }, "geometry": { "type": "Point", "coordinates": [ -8230489.596100000664592, 4986414.496399998664856 ] } },
{ "type": "Feature", "properties": { "ATS": "05M514", "Building_C": "M195", "Location_C": "M514", "Name": "New Design Middle School", "Geographic": 5, "Latitude": 40.819793, "Longitude": -73.956814 }, "geometry": { "type": "Point", "coordinates": [ -8232834.875199999660254, 4985797.399400003254414 ] } },
{ "type": "Feature", "properties": { "ATS": "05M517", "Building_C": "M916", "Location_C": "M517", "Name": "Teachers College Community School", "Geographic": 5, "Latitude": 40.812428, "Longitude": -73.953317 }, "geometry": { "type": "Point", "coordinates": [ -8232445.590900000184774, 4984714.080399997532368 ] } },
{ "type": "Feature", "properties": { "ATS": "05M670", "Building_C": "M970", "Location_C": "M670", "Name": "Thurgood Marshall Academy for Learning and Social", "Geographic": 5, "Latitude": 40.815237, "Longitude": -73.944299 }, "geometry": { "type": "Point", "coordinates": [ -8231441.71169999986887, 4985127.242399998009205 ] } },
{ "type": "Feature", "properties": { "ATS": "05M692", "Building_C": "M812", "Location_C": "M692", "Name": "High School for Mathematics, Science and Engineeri", "Geographic": 6, "Latitude": 40.820208, "Longitude": -73.950354 }, "geometry": { "type": "Point", "coordinates": [ -8232115.751299999654293, 4985858.44539999961853 ] } },
{ "type": "Feature", "properties": { "ATS": "06M004", "Building_C": "M004", "Location_C": "M004", "Name": "P.S. 004 Duke Ellington", "Geographic": 6, "Latitude": 40.834877, "Longitude": -73.941594 }, "geometry": { "type": "Point", "coordinates": [ -8231140.592499999329448, 4988016.482799999415874 ] } },
{ "type": "Feature", "properties": { "ATS": "06M005", "Building_C": "M005", "Location_C": "M005", "Name": "P.S. 005 Ellen Lurie", "Geographic": 6, "Latitude": 40.857633, "Longitude": -73.922277 }, "geometry": { "type": "Point", "coordinates": [ -8228990.233899999409914, 4991365.188500002026558 ] } },
{ "type": "Feature", "properties": { "ATS": "06M008", "Building_C": "M008", "Location_C": "M008", "Name": "P.S. 008 Luis Belliard", "Geographic": 6, "Latitude": 40.839235, "Longitude": -73.936614 }, "geometry": { "type": "Point", "coordinates": [ -8230586.2215, 4988657.704199999570847 ] } },
{ "type": "Feature", "properties": { "ATS": "06M018", "Building_C": "M502", "Location_C": "M018", "Name": "P.S. 018 Park Terrace", "Geographic": 6, "Latitude": 40.860961, "Longitude": -73.921474 }, "geometry": { "type": "Point", "coordinates": [ -8228900.844399999827147, 4991855.023599997162819 ] } },
{ "type": "Feature", "properties": { "ATS": "06M028", "Building_C": "M028", "Location_C": "M028", "Name": "P.S. 028 Wright Brothers", "Geographic": 6, "Latitude": 40.83163, "Longitude": -73.942023 }, "geometry": { "type": "Point", "coordinates": [ -8231188.348600000143051, 4987538.757600001990795 ] } },
{ "type": "Feature", "properties": { "ATS": "06M048", "Building_C": "M048", "Location_C": "M048", "Name": "P.S. 048 P.O. Michael J. Buczek", "Geographic": 6, "Latitude": 40.853193, "Longitude": -73.933629 }, "geometry": { "type": "Point", "coordinates": [ -8230253.932800000533462, 4990711.720899999141693 ] } },
{ "type": "Feature", "properties": { "ATS": "06M052", "Building_C": "M052", "Location_C": "M052", "Name": "Harold O. Levy School", "Geographic": 6, "Latitude": 40.865556, "Longitude": -73.925464 }, "geometry": { "type": "Point", "coordinates": [ -8229345.009099999442697, 4992531.383699998259544 ] } },
{ "type": "Feature", "properties": { "ATS": "06M098", "Building_C": "M098", "Location_C": "M098", "Name": "P.S. 098 Shorac Kappock", "Geographic": 6, "Latitude": 40.867741, "Longitude": -73.917814 }, "geometry": { "type": "Point", "coordinates": [ -8228493.41499999910593, 4992853.020900003612041 ] } },
{ "type": "Feature", "properties": { "ATS": "06M103", "Building_C": "M132", "Location_C": "M103", "Name": "Dos Puentes Elementary School", "Geographic": 6, "Latitude": 40.850561, "Longitude": -73.933964 }, "geometry": { "type": "Point", "coordinates": [ -8230291.2248, 4990324.370700001716614 ] } },
{ "type": "Feature", "properties": { "ATS": "06M115", "Building_C": "M115", "Location_C": "M115", "Name": "P.S. 115 Alexander Humboldt", "Geographic": 6, "Latitude": 40.846116, "Longitude": -73.93514 }, "geometry": { "type": "Point", "coordinates": [ -8230422.136499999091029, 4989670.237099997699261 ] } },
{ "type": "Feature", "properties": { "ATS": "06M128", "Building_C": "M128", "Location_C": "M128", "Name": "P.S. 128 Audubon", "Geographic": 6, "Latitude": 40.841032, "Longitude": -73.938701 }, "geometry": { "type": "Point", "coordinates": [ -8230818.545199999585748, 4988922.120999999344349 ] } },
{ "type": "Feature", "properties": { "ATS": "06M132", "Building_C": "M132", "Location_C": "M132", "Name": "P.S. 132 Juan Pablo Duarte", "Geographic": 6, "Latitude": 40.850561, "Longitude": -73.933964 }, "geometry": { "type": "Point", "coordinates": [ -8230291.2248, 4990324.370700001716614 ] } },
{ "type": "Feature", "properties": { "ATS": "06M143", "Building_C": "M143", "Location_C": "M143", "Name": "J.H.S. 143 Eleanor Roosevelt", "Geographic": 6, "Latitude": 40.849311, "Longitude": -73.930991 }, "geometry": { "type": "Point", "coordinates": [ -8229960.271999999880791, 4990140.414200000464916 ] } },
{ "type": "Feature", "properties": { "ATS": "06M152", "Building_C": "M152", "Location_C": "M152", "Name": "P.S. 152 Dyckman Valley", "Geographic": 6, "Latitude": 40.859804, "Longitude": -73.927578 }, "geometry": { "type": "Point", "coordinates": [ -8229580.338500000536442, 4991684.726599998772144 ] } },
{ "type": "Feature", "properties": { "ATS": "06M153", "Building_C": "M153", "Location_C": "M153", "Name": "P.S. 153 Adam Clayton Powell", "Geographic": 6, "Latitude": 40.826514, "Longitude": -73.947599 }, "geometry": { "type": "Point", "coordinates": [ -8231809.066099999472499, 4986786.097300000488758 ] } },
{ "type": "Feature", "properties": { "ATS": "06M173", "Building_C": "M173", "Location_C": "M173", "Name": "P.S. 173", "Geographic": 6, "Latitude": 40.845459, "Longitude": -73.939785 }, "geometry": { "type": "Point", "coordinates": [ -8230939.215600000694394, 4989573.555600002408028 ] } },
{ "type": "Feature", "properties": { "ATS": "06M178", "Building_C": "M178", "Location_C": "M178", "Name": "Professor Juan Bosch Public School", "Geographic": 6, "Latitude": 40.85924, "Longitude": -73.928301 }, "geometry": { "type": "Point", "coordinates": [ -8229660.822499999776483, 4991601.71339999884367 ] } },
{ "type": "Feature", "properties": { "ATS": "06M187", "Building_C": "M187", "Location_C": "M187", "Name": "P.S./I.S. 187 Hudson Cliffs", "Geographic": 6, "Latitude": 40.856239, "Longitude": -73.93684 }, "geometry": { "type": "Point", "coordinates": [ -8230611.379699999466538, 4991160.018500000238419 ] } },
{ "type": "Feature", "properties": { "ATS": "06M189", "Building_C": "M189", "Location_C": "M189", "Name": "P.S. 189", "Geographic": 6, "Latitude": 40.853045, "Longitude": -73.928048 }, "geometry": { "type": "Point", "coordinates": [ -8229632.658700000494719, 4990689.939400002360344 ] } },
{ "type": "Feature", "properties": { "ATS": "06M192", "Building_C": "M192", "Location_C": "M192", "Name": "P.S. 192 Jacob H. Schiff", "Geographic": 6, "Latitude": 40.82051, "Longitude": -73.952023 }, "geometry": { "type": "Point", "coordinates": [ -8232301.543500000610948, 4985902.869400002062321 ] } },
{ "type": "Feature", "properties": { "ATS": "06M209", "Building_C": "M192", "Location_C": "M209", "Name": "Hamilton Grange Middle School", "Geographic": 6, "Latitude": 40.82051, "Longitude": -73.952023 }, "geometry": { "type": "Point", "coordinates": [ -8232301.543500000610948, 4985902.869400002062321 ] } },
{ "type": "Feature", "properties": { "ATS": "06M210", "Building_C": "M093", "Location_C": "M210", "Name": "P.S./I.S. 210 - Twenty-first Century Academy for C", "Geographic": 6, "Latitude": 40.830004, "Longitude": -73.944666 }, "geometry": { "type": "Point", "coordinates": [ -8231482.565999999642372, 4987299.535999998450279 ] } },
{ "type": "Feature", "properties": { "ATS": "06M211", "Building_C": "M052", "Location_C": "M211", "Name": "Inwood Early College for Health and Information Te", "Geographic": 6, "Latitude": 40.865556, "Longitude": -73.925464 }, "geometry": { "type": "Point", "coordinates": [ -8229345.009099999442697, 4992531.383699998259544 ] } },
{ "type": "Feature", "properties": { "ATS": "06M223", "Building_C": "M164", "Location_C": "M223", "Name": "The Mott Hall School", "Geographic": 6, "Latitude": 40.836982, "Longitude": -73.937263 }, "geometry": { "type": "Point", "coordinates": [ -8230658.467800000682473, 4988326.200099997222424 ] } },
{ "type": "Feature", "properties": { "ATS": "06M278", "Building_C": "M502", "Location_C": "M278", "Name": "Paula Hedbavny School", "Geographic": 6, "Latitude": 40.860961, "Longitude": -73.921474 }, "geometry": { "type": "Point", "coordinates": [ -8228900.844399999827147, 4991855.023599997162819 ] } },
{ "type": "Feature", "properties": { "ATS": "06M293", "Building_C": "M218", "Location_C": "M293", "Name": "City College Academy of the Arts", "Geographic": 6, "Latitude": 40.860951, "Longitude": -73.930082 }, "geometry": { "type": "Point", "coordinates": [ -8229859.082499999552965, 4991853.551700003445148 ] } },
{ "type": "Feature", "properties": { "ATS": "06M311", "Building_C": "M176", "Location_C": "M311", "Name": "Amistad Dual Language School", "Geographic": 6, "Latitude": 40.866381, "Longitude": -73.923818 }, "geometry": { "type": "Point", "coordinates": [ -8229161.777300000190735, 4992652.824400000274181 ] } },
{ "type": "Feature", "properties": { "ATS": "06M314", "Building_C": "M176", "Location_C": "M314", "Name": "Muscota", "Geographic": 6, "Latitude": 40.866381, "Longitude": -73.923818 }, "geometry": { "type": "Point", "coordinates": [ -8229161.777300000190735, 4992652.824400000274181 ] } },
{ "type": "Feature", "properties": { "ATS": "06M319", "Building_C": "M090", "Location_C": "M319", "Name": "M.S. 319 - Maria Teresa", "Geographic": 6, "Latitude": 40.839139, "Longitude": -73.935815 }, "geometry": { "type": "Point", "coordinates": [ -8230497.277200000360608, 4988643.578599996864796 ] } },
{ "type": "Feature", "properties": { "ATS": "06M322", "Building_C": "M218", "Location_C": "M322", "Name": "Middle School 322", "Geographic": 6, "Latitude": 40.860951, "Longitude": -73.930082 }, "geometry": { "type": "Point", "coordinates": [ -8229859.082499999552965, 4991853.551700003445148 ] } },
{ "type": "Feature", "properties": { "ATS": "06M324", "Building_C": "M090", "Location_C": "M324", "Name": "M.S. 324 - Patria Mirabal", "Geographic": 6, "Latitude": 40.839139, "Longitude": -73.935815 }, "geometry": { "type": "Point", "coordinates": [ -8230497.277200000360608, 4988643.578599996864796 ] } },
{ "type": "Feature", "properties": { "ATS": "06M328", "Building_C": "M164", "Location_C": "M328", "Name": "Community Math & Science Prep", "Geographic": 6, "Latitude": 40.836982, "Longitude": -73.937263 }, "geometry": { "type": "Point", "coordinates": [ -8230658.467800000682473, 4988326.200099997222424 ] } },
{ "type": "Feature", "properties": { "ATS": "06M346", "Building_C": "M814", "Location_C": "M346", "Name": "Community Health Academy of the Heights", "Geographic": 6, "Latitude": 40.833695, "Longitude": -73.942074 }, "geometry": { "type": "Point", "coordinates": [ -8231194.025900000706315, 4987842.574600003659725 ] } },
{ "type": "Feature", "properties": { "ATS": "06M348", "Building_C": "M143", "Location_C": "M348", "Name": "Washington Heights Expeditionary Learning School", "Geographic": 6, "Latitude": 40.849311, "Longitude": -73.930991 }, "geometry": { "type": "Point", "coordinates": [ -8229960.271999999880791, 4990140.414200000464916 ] } },
{ "type": "Feature", "properties": { "ATS": "06M366", "Building_C": "M263", "Location_C": "M366", "Name": "Washington Heights Academy", "Geographic": 6, "Latitude": 40.865575, "Longitude": -73.921631 }, "geometry": { "type": "Point", "coordinates": [ -8228918.32149999961257, 4992534.180500000715256 ] } },
{ "type": "Feature", "properties": { "ATS": "06M368", "Building_C": "M153", "Location_C": "M368", "Name": "The William Lynch School", "Geographic": 6, "Latitude": 40.826514, "Longitude": -73.947599 }, "geometry": { "type": "Point", "coordinates": [ -8231809.066099999472499, 4986786.097300000488758 ] } },
{ "type": "Feature", "properties": { "ATS": "06M423", "Building_C": "M052", "Location_C": "M423", "Name": "High School for Excellence and Innovation", "Geographic": 6, "Latitude": 40.865556, "Longitude": -73.925464 }, "geometry": { "type": "Point", "coordinates": [ -8229345.009099999442697, 4992531.383699998259544 ] } },
{ "type": "Feature", "properties": { "ATS": "06M462", "Building_C": "M465", "Location_C": "M462", "Name": "The College Academy", "Geographic": 6, "Latitude": 40.856532, "Longitude": -73.92606 }, "geometry": { "type": "Point", "coordinates": [ -8229411.355599999427795, 4991203.142099998891354 ] } },
{ "type": "Feature", "properties": { "ATS": "06M463", "Building_C": "M465", "Location_C": "M463", "Name": "High School for Media and Communications", "Geographic": 6, "Latitude": 40.856532, "Longitude": -73.92606 }, "geometry": { "type": "Point", "coordinates": [ -8229411.355599999427795, 4991203.142099998891354 ] } },
{ "type": "Feature", "properties": { "ATS": "06M467", "Building_C": "M465", "Location_C": "M467", "Name": "High School for Law and Public Service", "Geographic": 6, "Latitude": 40.856532, "Longitude": -73.92606 }, "geometry": { "type": "Point", "coordinates": [ -8229411.355599999427795, 4991203.142099998891354 ] } },
{ "type": "Feature", "properties": { "ATS": "06M468", "Building_C": "M465", "Location_C": "M468", "Name": "High School for Health Careers and Sciences", "Geographic": 6, "Latitude": 40.856532, "Longitude": -73.92606 }, "geometry": { "type": "Point", "coordinates": [ -8229411.355599999427795, 4991203.142099998891354 ] } },
{ "type": "Feature", "properties": { "ATS": "06M513", "Building_C": "M128", "Location_C": "M513", "Name": "Castle Bridge School", "Geographic": 6, "Latitude": 40.841032, "Longitude": -73.938701 }, "geometry": { "type": "Point", "coordinates": [ -8230818.545199999585748, 4988922.120999999344349 ] } },
{ "type": "Feature", "properties": { "ATS": "06M528", "Building_C": "M528", "Location_C": "M528", "Name": "I.S. 528 Bea Fuller Rodgers School", "Geographic": 6, "Latitude": 40.850683, "Longitude": -73.934676 }, "geometry": { "type": "Point", "coordinates": [ -8230370.484300000593066, 4990342.325099997222424 ] } },
{ "type": "Feature", "properties": { "ATS": "06M540", "Building_C": "M540", "Location_C": "M540", "Name": "A. Philip Randolph Campus High School", "Geographic": 6, "Latitude": 40.8185, "Longitude": -73.949929 }, "geometry": { "type": "Point", "coordinates": [ -8232068.440500000491738, 4985607.203100003302097 ] } },
{ "type": "Feature", "properties": { "ATS": "06M552", "Building_C": "M876", "Location_C": "M552", "Name": "Gregorio Luperon High School for Science and Mathe", "Geographic": 6, "Latitude": 40.8381, "Longitude": -73.9383 }, "geometry": { "type": "Point", "coordinates": [ -8230773.906099999323487, 4988490.700099997222424 ] } },
{ "type": "Feature", "properties": { "ATS": "07X001", "Building_C": "X001", "Location_C": "X001", "Name": "P.S. 001 Courtlandt School", "Geographic": 7, "Latitude": 40.819331, "Longitude": -73.919634 }, "geometry": { "type": "Point", "coordinates": [ -8228696.0165, 4985729.440200001001358 ] } },
{ "type": "Feature", "properties": { "ATS": "07X005", "Building_C": "X005", "Location_C": "X005", "Name": "P.S. 5 Port Morris", "Geographic": 7, "Latitude": 40.813896, "Longitude": -73.908358 }, "geometry": { "type": "Point", "coordinates": [ -8227440.777899999171495, 4984929.999099999666214 ] } },
{ "type": "Feature", "properties": { "ATS": "07X018", "Building_C": "X018", "Location_C": "X018", "Name": "P.S. 018 John Peter Zenger", "Geographic": 7, "Latitude": 40.816369, "Longitude": -73.922697 }, "geometry": { "type": "Point", "coordinates": [ -8229036.988099999725819, 4985293.747699998319149 ] } },
{ "type": "Feature", "properties": { "ATS": "07X025", "Building_C": "X025", "Location_C": "X025", "Name": "P.S. 025 Bilingual School", "Geographic": 7, "Latitude": 40.812895, "Longitude": -73.905751 }, "geometry": { "type": "Point", "coordinates": [ -8227150.568, 4984782.767899997532368 ] } },
{ "type": "Feature", "properties": { "ATS": "07X029", "Building_C": "X029", "Location_C": "X029", "Name": "P.S./M.S. 029 Melrose School", "Geographic": 7, "Latitude": 40.821544, "Longitude": -73.916419 }, "geometry": { "type": "Point", "coordinates": [ -8228338.124299999326468, 4986054.971900001168251 ] } },
{ "type": "Feature", "properties": { "ATS": "07X030", "Building_C": "X030", "Location_C": "X030", "Name": "P.S. 030 Wilton", "Geographic": 7, "Latitude": 40.809023, "Longitude": -73.917417 }, "geometry": { "type": "Point", "coordinates": [ -8228449.221200000494719, 4984213.279100000858307 ] } },
{ "type": "Feature", "properties": { "ATS": "07X031", "Building_C": "X151", "Location_C": "X031", "Name": "P.S./M.S. 031 The William Lloyd Garrison", "Geographic": 7, "Latitude": 40.822574, "Longitude": -73.92114 }, "geometry": { "type": "Point", "coordinates": [ -8228863.663699999451637, 4986206.488399997353554 ] } },
{ "type": "Feature", "properties": { "ATS": "07X043", "Building_C": "X043", "Location_C": "X043", "Name": "P.S. 043 Jonas Bronck", "Geographic": 7, "Latitude": 40.806452, "Longitude": -73.921593 }, "geometry": { "type": "Point", "coordinates": [ -8228914.091399999335408, 4983835.157999999821186 ] } },
{ "type": "Feature", "properties": { "ATS": "07X049", "Building_C": "X049", "Location_C": "X049", "Name": "P.S. 049 Willis Avenue", "Geographic": 7, "Latitude": 40.810413, "Longitude": -73.92273 }, "geometry": { "type": "Point", "coordinates": [ -8229040.661599999293685, 4984417.714699998497963 ] } },
{ "type": "Feature", "properties": { "ATS": "07X065", "Building_C": "X065", "Location_C": "X065", "Name": "P.S. 065 Mother Hale Academy", "Geographic": 7, "Latitude": 40.807916, "Longitude": -73.912557 }, "geometry": { "type": "Point", "coordinates": [ -8227908.208499999716878, 4984050.468999996781349 ] } },
{ "type": "Feature", "properties": { "ATS": "07X154", "Building_C": "X154", "Location_C": "X154", "Name": "P.S. 154 Jonathan D. Hyatt", "Geographic": 7, "Latitude": 40.808194, "Longitude": -73.925459 }, "geometry": { "type": "Point", "coordinates": [ -8229344.452500000596046, 4984091.355099998414516 ] } },
{ "type": "Feature", "properties": { "ATS": "07X157", "Building_C": "X157", "Location_C": "X157", "Name": "P.S. 157 Grove Hill", "Geographic": 7, "Latitude": 40.819419, "Longitude": -73.908965 }, "geometry": { "type": "Point", "coordinates": [ -8227508.348899999633431, 4985742.384800001978874 ] } },
{ "type": "Feature", "properties": { "ATS": "07X161", "Building_C": "X161", "Location_C": "X161", "Name": "P.S. 161 Juan Ponce De Leon School", "Geographic": 7, "Latitude": 40.814168, "Longitude": -73.905233 }, "geometry": { "type": "Point", "coordinates": [ -8227092.904500000178814, 4984970.006399996578693 ] } },
{ "type": "Feature", "properties": { "ATS": "07X179", "Building_C": "X040", "Location_C": "X179", "Name": "P.S. 179", "Geographic": 7, "Latitude": 40.80908, "Longitude": -73.919773 }, "geometry": { "type": "Point", "coordinates": [ -8228711.489900000393391, 4984221.662299998104572 ] } },
{ "type": "Feature", "properties": { "ATS": "07X221", "Building_C": "X149", "Location_C": "X221", "Name": "South Bronx Preparatory: A College Board School", "Geographic": 7, "Latitude": 40.813612, "Longitude": -73.920851 }, "geometry": { "type": "Point", "coordinates": [ -8228831.4923, 4984888.226999998092651 ] } },
{ "type": "Feature", "properties": { "ATS": "07X223", "Building_C": "X149", "Location_C": "X223", "Name": "The Laboratory School of Finance and Technology: X", "Geographic": 7, "Latitude": 40.813612, "Longitude": -73.920851 }, "geometry": { "type": "Point", "coordinates": [ -8228831.4923, 4984888.226999998092651 ] } },
{ "type": "Feature", "properties": { "ATS": "07X224", "Building_C": "X139", "Location_C": "X224", "Name": "P.S./I.S. 224", "Geographic": 7, "Latitude": 40.810314, "Longitude": -73.918774 }, "geometry": { "type": "Point", "coordinates": [ -8228600.281700000166893, 4984403.153999999165535 ] } },
{ "type": "Feature", "properties": { "ATS": "07X259", "Building_C": "X655", "Location_C": "X259", "Name": "H.E.R.O. High (Health, Education, and Research Occ", "Geographic": 7, "Latitude": 40.810671, "Longitude": -73.907528 }, "geometry": { "type": "Point", "coordinates": [ -8227348.3827, 4984455.660800002515316 ] } },
{ "type": "Feature", "properties": { "ATS": "07X277", "Building_C": "X027", "Location_C": "X277", "Name": "P.S. 277", "Geographic": 7, "Latitude": 40.813385, "Longitude": -73.913872 }, "geometry": { "type": "Point", "coordinates": [ -8228054.593599999323487, 4984854.838899999856949 ] } },
{ "type": "Feature", "properties": { "ATS": "07X296", "Building_C": "X184", "Location_C": "X296", "Name": "South Bronx Academy for Applied Media", "Geographic": 7, "Latitude": 40.818703, "Longitude": -73.905389 }, "geometry": { "type": "Point", "coordinates": [ -8227110.270400000736117, 4985637.063500002026558 ] } },
{ "type": "Feature", "properties": { "ATS": "07X298", "Building_C": "X184", "Location_C": "X298", "Name": "Academy of Public Relations", "Geographic": 7, "Latitude": 40.818703, "Longitude": -73.905389 }, "geometry": { "type": "Point", "coordinates": [ -8227110.270400000736117, 4985637.063500002026558 ] } },
{ "type": "Feature", "properties": { "ATS": "07X334", "Building_C": "X139", "Location_C": "X334", "Name": "International Community High School", "Geographic": 7, "Latitude": 40.810314, "Longitude": -73.918774 }, "geometry": { "type": "Point", "coordinates": [ -8228600.281700000166893, 4984403.153999999165535 ] } },
{ "type": "Feature", "properties": { "ATS": "07X343", "Building_C": "X139", "Location_C": "X343", "Name": "Academy of Applied Mathematics and Technology", "Geographic": 7, "Latitude": 40.810314, "Longitude": -73.918774 }, "geometry": { "type": "Point", "coordinates": [ -8228600.281700000166893, 4984403.153999999165535 ] } },
{ "type": "Feature", "properties": { "ATS": "07X359", "Building_C": "X487", "Location_C": "X359", "Name": "Leaders of Excellence, Advocacy and Discovery", "Geographic": 7, "Latitude": 40.816974, "Longitude": -73.912039 }, "geometry": { "type": "Point", "coordinates": [ -8227850.545, 4985382.737999998033047 ] } },
{ "type": "Feature", "properties": { "ATS": "07X369", "Building_C": "X040", "Location_C": "X369", "Name": "Young Leaders Elementary School", "Geographic": 7, "Latitude": 40.80908, "Longitude": -73.919773 }, "geometry": { "type": "Point", "coordinates": [ -8228711.489900000393391, 4984221.662299998104572 ] } },
{ "type": "Feature", "properties": { "ATS": "07X379", "Building_C": "X184", "Location_C": "X379", "Name": "Jill Chaifetz Transfer High School", "Geographic": 7, "Latitude": 40.818703, "Longitude": -73.905389 }, "geometry": { "type": "Point", "coordinates": [ -8227110.270400000736117, 4985637.063500002026558 ] } },
{ "type": "Feature", "properties": { "ATS": "07X381", "Building_C": "X600", "Location_C": "X381", "Name": "Bronx Haven High School", "Geographic": 7, "Latitude": 40.818645, "Longitude": -73.919949 }, "geometry": { "type": "Point", "coordinates": [ -8228731.082100000232458, 4985628.531999997794628 ] } },
{ "type": "Feature", "properties": { "ATS": "07X427", "Building_C": "X884", "Location_C": "X427", "Name": "Community School for Social Justice", "Geographic": 7, "Latitude": 40.815712, "Longitude": -73.92996 }, "geometry": { "type": "Point", "coordinates": [ -8229845.501599999144673, 4985197.1096 ] } },
{ "type": "Feature", "properties": { "ATS": "07X473", "Building_C": "X470", "Location_C": "X473", "Name": "Mott Haven Village Preparatory High School", "Geographic": 7, "Latitude": 40.818041, "Longitude": -73.911633 }, "geometry": { "type": "Point", "coordinates": [ -8227805.349300000816584, 4985539.686499997973442 ] } },
{ "type": "Feature", "properties": { "ATS": "07X495", "Building_C": "X470", "Location_C": "X495", "Name": "University Heights Secondary School", "Geographic": 7, "Latitude": 40.818041, "Longitude": -73.911633 }, "geometry": { "type": "Point", "coordinates": [ -8227805.349300000816584, 4985539.686499997973442 ] } },
{ "type": "Feature", "properties": { "ATS": "07X500", "Building_C": "X162", "Location_C": "X500", "Name": "Hostos-Lincoln Academy of Science", "Geographic": 7, "Latitude": 40.814857, "Longitude": -73.912038 }, "geometry": { "type": "Point", "coordinates": [ -8227850.433700000867248, 4985071.34910000115633 ] } },
{ "type": "Feature", "properties": { "ATS": "07X522", "Building_C": "X600", "Location_C": "X522", "Name": "Bronx Design and Construction Academy", "Geographic": 7, "Latitude": 40.818645, "Longitude": -73.919949 },